region_type;city;timezone;geo_lat;geo_lon
Адыгейск Респ Адыгея;Адыгейск;UTC+3;44.878414;39.190289
Майкоп Респ Адыгея;Майкоп;UTC+3;44.6098268;40.1006606
Горно-Алтайск Респ Алтай;Горно-Алтайск;UTC+7;51.9581028;85.9603235
Алейск край Алтайский;Алейск;UTC+7;52.4922513;82.7793606
Барнаул край Алтайский;Барнаул;UTC+7;53.3479968;83.7798064
Белокуриха край Алтайский;Белокуриха;UTC+7;51.996152;84.9839604
Бийск край Алтайский;Бийск;UTC+7;52.5393864;85.2138453
Горняк край Алтайский р-н Локтевский;Горняк;UTC+7;50.9979622;81.4643358
Заринск край Алтайский;Заринск;UTC+7;53.7063476;84.9315081
Змеиногорск край Алтайский р-н Змеиногорский;Змеиногорск;UTC+7;51.1581094;82.1872547
Камень-на-Оби край Алтайский р-н Каменский;Камень-на-Оби;UTC+7;53.7913974;81.3545053
Новоалтайск край Алтайский;Новоалтайск;UTC+7;53.4119759;83.9311069
Рубцовск край Алтайский;Рубцовск;UTC+7;51.5012067;81.2078695
Славгород край Алтайский;Славгород;UTC+7;52.999463;78.6459232
Яровое край Алтайский;Яровое;UTC+7;52.9252146;78.5729775
Белогорск обл Амурская;Белогорск;UTC+9;50.9213415;128.4739471
Благовещенск обл Амурская;Благовещенск;UTC+9;50.290659;127.527198
Завитинск обл Амурская р-н Завитинский;Завитинск;UTC+9;50.1064111;129.4391813
Зея обл Амурская;Зея;UTC+9;53.7340088;127.265787
Райчихинск обл Амурская;Райчихинск;UTC+9;49.7941615;129.4112492
Свободный обл Амурская;Свободный;UTC+9;51.3614103;128.1219729
Сковородино обл Амурская р-н Сковородинский;Сковородино;UTC+9;53.9871095;123.9437205
Тында обл Амурская;Тында;UTC+9;55.1546441;124.7468904
Циолковский обл Амурская;Циолковский;UTC+9;51.762481;128.1219846
Шимановск обл Амурская;Шимановск;UTC+9;52.0051886;127.7005458
Архангельск обл Архангельская;Архангельск;UTC+3;64.5394289;40.5169606
Вельск обл Архангельская р-н Вельский;Вельск;UTC+3;61.066;42.1032789
Каргополь обл Архангельская р-н Каргопольский;Каргополь;UTC+3;61.5009724;38.9636966
Коряжма обл Архангельская;Коряжма;UTC+3;61.2885948;47.1003015
Котлас обл Архангельская р-н Котласский;Котлас;UTC+3;61.2528972;46.633242
Мезень обл Архангельская р-н Мезенский;Мезень;UTC+3;65.8398078;44.2532273
Мирный обл Архангельская;Мирный;UTC+3;62.7645265;40.3360076
Новодвинск обл Архангельская;Новодвинск;UTC+3;64.4136851;40.8208143
Няндома обл Архангельская р-н Няндомский;Няндома;UTC+3;61.6654674;40.2062947
Онега обл Архангельская р-н Онежский;Онега;UTC+3;63.9162928;38.0805031
Северодвинск обл Архангельская;Северодвинск;UTC+3;64.5625385;39.8180934
Сольвычегодск обл Архангельская р-н Котласский;Сольвычегодск;UTC+3;61.3319616;46.920441
Шенкурск обл Архангельская р-н Шенкурский;Шенкурск;UTC+3;62.1057272;42.8996973
Астрахань обл Астраханская;Астрахань;UTC+4;46.3655652;48.0559236
Ахтубинск обл Астраханская р-н Ахтубинский;Ахтубинск;UTC+4;48.2752034;46.1906462
Знаменск обл Астраханская;Знаменск;UTC+4;48.5866291;45.7368019
Камызяк обл Астраханская р-н Камызякский;Камызяк;UTC+4;46.110579;48.07333
Нариманов обл Астраханская р-н Наримановский;Нариманов;UTC+4;46.6916565;47.8502476
Харабали обл Астраханская р-н Харабалинский;Харабали;UTC+4;47.408999;47.2525345
Агидель Респ Башкортостан;Агидель;UTC+5;55.8999056;53.9220144
Баймак Респ Башкортостан р-н Баймакский;Баймак;UTC+5;52.5912896;58.3110998
Белебей Респ Башкортостан р-н Белебеевский;Белебей;UTC+5;54.1034582;54.1113129
Белорецк Респ Башкортостан р-н Белорецкий;Белорецк;UTC+5;53.9676488;58.4100419
Бирск Респ Башкортостан р-н Бирский;Бирск;UTC+5;55.4155753;55.5582214
Благовещенск Респ Башкортостан р-н Благовещенский;Благовещенск;UTC+5;55.0499867;55.9553186
Давлеканово Респ Башкортостан р-н Давлекановский;Давлеканово;UTC+5;54.2226707;55.0312373
Дюртюли Респ Башкортостан р-н Дюртюлинский;Дюртюли;UTC+5;55.4848318;54.8524765
Ишимбай Респ Башкортостан р-н Ишимбайский;Ишимбай;UTC+5;53.4545764;56.0438751
Кумертау Респ Башкортостан;Кумертау;UTC+5;52.7564939;55.7970197
Межгорье Респ Башкортостан;Межгорье;UTC+5;54.2397689;57.9614547
Мелеуз Респ Башкортостан р-н Мелеузовский;Мелеуз;UTC+5;52.9589532;55.9282838
Нефтекамск Респ Башкортостан;Нефтекамск;UTC+5;56.088377;54.2483061
Октябрьский Респ Башкортостан;Октябрьский;UTC+5;54.4815311;53.4655972
Салават Респ Башкортостан;Салават;UTC+5;53.3616974;55.9245224
Сибай Респ Башкортостан;Сибай;UTC+5;52.7204651;58.6663783
Стерлитамак Респ Башкортостан;Стерлитамак;UTC+5;53.6300864;55.9317089
Туймазы Респ Башкортостан р-н Туймазинский;Туймазы;UTC+5;54.5999224;53.6950623
Уфа Респ Башкортостан;Уфа;UTC+5;54.734944;55.9578468
Учалы Респ Башкортостан р-н Учалинский;Учалы;UTC+5;54.3067375;59.4125461
Янаул Респ Башкортостан р-н Янаульский;Янаул;UTC+5;56.2650146;54.929907
Алексеевка обл Белгородская р-н Алексеевский;Алексеевка;UTC+3;50.6299647;38.6880342
Белгород обл Белгородская;Белгород;UTC+3;50.5976472;36.5856652
Бирюч обл Белгородская р-н Красногвардейский;Бирюч;UTC+3;50.6484585;38.4005083
Валуйки обл Белгородская р-н Валуйский;Валуйки;UTC+3;50.2111207;38.0998772
Грайворон обл Белгородская р-н Грайворонский;Грайворон;UTC+3;50.4862958;35.6663877
Губкин обл Белгородская;Губкин;UTC+3;51.2837123;37.5347759
Короча обл Белгородская р-н Корочанский;Короча;UTC+3;50.8129041;37.1896436
Новый Оскол обл Белгородская р-н Новооскольский;Новый Оскол;UTC+3;50.7633747;37.8775484
Старый Оскол обл Белгородская;Старый Оскол;UTC+3;51.2967101;37.8350182
Строитель обл Белгородская р-н Яковлевский;Строитель;UTC+3;50.7845099;36.4887648
Шебекино обл Белгородская;Шебекино;UTC+3;50.4004883;36.8877889
Брянск обл Брянская;Брянск;UTC+3;53.2419535;34.3652146
Дятьково обл Брянская р-н Дятьковский;Дятьково;UTC+3;53.5958178;34.3551812
Жуковка обл Брянская р-н Жуковский;Жуковка;UTC+3;53.5340397;33.7302579
Злынка обл Брянская р-н Злынковский;Злынка;UTC+3;52.4267015;31.7360399
Карачев обл Брянская р-н Карачевский;Карачев;UTC+3;53.1296524;34.9888727
Клинцы обл Брянская;Клинцы;UTC+3;52.7529119;32.233911
Мглин обл Брянская р-н Мглинский;Мглин;UTC+3;53.0599771;32.8468129
Новозыбков обл Брянская;Новозыбков;UTC+3;52.537173;31.9357991
Почеп обл Брянская р-н Почепский;Почеп;UTC+3;52.9154851;33.4744058
Севск обл Брянская р-н Севский;Севск;UTC+3;52.1483358;34.4918415
Сельцо обл Брянская;Сельцо;UTC+3;53.3739884;34.1059172
Стародуб обл Брянская;Стародуб;UTC+3;52.5852257;32.760403
Сураж обл Брянская р-н Суражский;Сураж;UTC+3;53.0170888;32.3938878
Трубчевск обл Брянская р-н Трубчевский;Трубчевск;UTC+3;52.5791734;33.7660547
Унеча обл Брянская р-н Унечский;Унеча;UTC+3;52.8461199;32.6757629
Фокино обл Брянская;Фокино;UTC+3;53.4554145;34.4159238
Бабушкин Респ Бурятия р-н Кабанский;Бабушкин;UTC+8;51.7112755;105.8673219
Гусиноозерск Респ Бурятия р-н Селенгинский;Гусиноозерск;UTC+8;51.2865048;106.5230319
Закаменск Респ Бурятия р-н Закаменский;Закаменск;UTC+8;50.372713;103.286699
Кяхта Респ Бурятия р-н Кяхтинский;Кяхта;UTC+8;50.346543;106.4533516
Северобайкальск Респ Бурятия;Северобайкальск;UTC+8;55.635614;109.3361505
Улан-Удэ Респ Бурятия;Улан-Удэ;UTC+8;51.8335853;107.5842223
Александров обл Владимирская р-н Александровский;Александров;UTC+3;56.391819;38.7111123
Владимир обл Владимирская;Владимир;UTC+3;56.1280804;40.4084376
Вязники обл Владимирская р-н Вязниковский;Вязники;UTC+3;56.29773;42.2687398
Гороховец обл Владимирская р-н Гороховецкий;Гороховец;UTC+3;56.2021036;42.6926111
Гусь-Хрустальный обл Владимирская;Гусь-Хрустальный;UTC+3;55.6198751;40.6579929
Камешково обл Владимирская р-н Камешковский;Камешково;UTC+3;56.3490152;40.9955183
Карабаново обл Владимирская р-н Александровский;Карабаново;UTC+3;56.3131822;38.7034257
Киржач обл Владимирская р-н Киржачский;Киржач;UTC+3;56.1486863;38.8635701
Ковров обл Владимирская;Ковров;UTC+3;56.3554349;41.3170576
Кольчугино обл Владимирская р-н Кольчугинский;Кольчугино;UTC+3;56.3327254;39.391336
Костерево обл Владимирская р-н Петушинский;Костерево;UTC+3;55.9337222;39.6247398
Курлово обл Владимирская р-н Гусь-Хрустальный;Курлово;UTC+3;55.452698;40.6124108
Лакинск обл Владимирская р-н Собинский;Лакинск;UTC+3;56.0180587;39.956551
Меленки обл Владимирская р-н Меленковский;Меленки;UTC+3;55.3387515;41.6340046
Муром обл Владимирская;Муром;UTC+3;55.5630311;42.0231362
Петушки обл Владимирская р-н Петушинский;Петушки;UTC+3;55.9298134;39.4508075
Покров обл Владимирская р-н Петушинский;Покров;UTC+3;55.9166398;39.1734526
Радужный обл Владимирская;Радужный;UTC+3;55.9960277;40.3321855
Собинка обл Владимирская р-н Собинский;Собинка;UTC+3;55.9939169;40.0179653
Струнино обл Владимирская р-н Александровский;Струнино;UTC+3;56.3749967;38.5839667
Судогда обл Владимирская р-н Судогодский;Судогда;UTC+3;55.9498056;40.8562939
Суздаль обл Владимирская р-н Суздальский;Суздаль;UTC+3;56.4274441;40.4525692
Юрьев-Польский обл Владимирская р-н Юрьев-Польский;Юрьев-Польский;UTC+3;56.4937757;39.6680539
Волгоград обл Волгоградская;Волгоград;UTC+3;48.7070042;44.5170339
Волжский обл Волгоградская;Волжский;UTC+3;48.7978209;44.7462538
Дубовка обл Волгоградская р-н Дубовский;Дубовка;UTC+3;49.0554742;44.8270085
Жирновск обл Волгоградская р-н Жирновский;Жирновск;UTC+3;50.9768814;44.7858202
Калач-на-Дону обл Волгоградская р-н Калачевский;Калач-на-Дону;UTC+3;48.6889024;43.5306303
Камышин обл Волгоградская;Камышин;UTC+3;50.0651529;45.3844202
Котельниково обл Волгоградская р-н Котельниковский;Котельниково;UTC+3;47.6310259;43.1330872
Котово обл Волгоградская р-н Котовский;Котово;UTC+3;50.3205766;44.8030699
Краснослободск обл Волгоградская р-н Среднеахтубинский;Краснослободск;UTC+3;48.7068721;44.5630857
Ленинск обл Волгоградская р-н Ленинский;Ленинск;UTC+3;48.6936061;45.1992692
Михайловка обл Волгоградская;Михайловка;UTC+3;50.0708719;43.2401512
Николаевск обл Волгоградская р-н Николаевский;Николаевск;UTC+3;50.0165306;45.4731658
Новоаннинский обл Волгоградская р-н Новоаннинский;Новоаннинский;UTC+3;50.5296067;42.6666439
Палласовка обл Волгоградская р-н Палласовский;Палласовка;UTC+3;50.0500944;46.8804277
Петров Вал обл Волгоградская р-н Камышинский;Петров Вал;UTC+3;50.1380557;45.20914
Серафимович обл Волгоградская р-н Серафимовичский;Серафимович;UTC+3;49.5663183;42.7360402
Суровикино обл Волгоградская р-н Суровикинский;Суровикино;UTC+3;48.618917;42.8541163
Урюпинск обл Волгоградская;Урюпинск;UTC+3;50.7903789;42.0288513
Фролово обл Волгоградская;Фролово;UTC+3;49.7649148;43.6648641
Бабаево обл Вологодская р-н Бабаевский;Бабаево;UTC+3;59.3892583;35.9377058
Белозерск обл Вологодская р-н Белозерский;Белозерск;UTC+3;60.0308381;37.7890586
Великий Устюг обл Вологодская р-н Великоустюгский;Великий Устюг;UTC+3;60.7603913;46.3054414
Вологда обл Вологодская;Вологда;UTC+3;59.2483905;39.8355662
Вытегра обл Вологодская р-н Вытегорский;Вытегра;UTC+3;61.0063465;36.4495137
Грязовец обл Вологодская р-н Грязовецкий;Грязовец;UTC+3;58.8757553;40.2485362
Кадников обл Вологодская р-н Сокольский;Кадников;UTC+3;59.5037764;40.3441148
Кириллов обл Вологодская р-н Кирилловский;Кириллов;UTC+3;59.8591523;38.3748782
Красавино обл Вологодская р-н Великоустюгский;Красавино;UTC+3;60.9612823;46.4814116
Никольск обл Вологодская р-н Никольский;Никольск;UTC+3;59.5351837;45.4576137
Сокол обл Вологодская р-н Сокольский;Сокол;UTC+3;59.4758605;40.1114187
Тотьма обл Вологодская р-н Тотемский;Тотьма;UTC+3;59.9734998;42.7589506
Устюжна обл Вологодская р-н Устюженский;Устюжна;UTC+3;58.8383117;36.4425478
Харовск обл Вологодская р-н Харовский;Харовск;UTC+3;59.9479423;40.2000298
Череповец обл Вологодская;Череповец;UTC+3;59.1269212;37.9090497
Бобров обл Воронежская р-н Бобровский;Бобров;UTC+3;51.0901649;40.0318256
Богучар обл Воронежская р-н Богучарский;Богучар;UTC+3;49.9352454;40.5590801
Борисоглебск обл Воронежская р-н Борисоглебский;Борисоглебск;UTC+3;51.3655754;42.1008334
Бутурлиновка обл Воронежская р-н Бутурлиновский;Бутурлиновка;UTC+3;50.8311818;40.5976923
Воронеж обл Воронежская;Воронеж;UTC+3;51.6593332;39.1969229
Калач обл Воронежская р-н Калачеевский;Калач;UTC+3;50.4242134;41.0162014
Лиски обл Воронежская р-н Лискинский;Лиски;UTC+3;50.9945626;39.5184909
Нововоронеж обл Воронежская;Нововоронеж;UTC+3;51.3091524;39.2162843
Новохоперск обл Воронежская р-н Новохоперский;Новохоперск;UTC+3;51.0952211;41.6173404
Острогожск обл Воронежская р-н Острогожский;Острогожск;UTC+3;50.8677905;39.0407746
Павловск обл Воронежская р-н Павловский;Павловск;UTC+3;50.453455;40.136874
Поворино обл Воронежская р-н Поворинский;Поворино;UTC+3;51.1954419;42.2472726
Россошь обл Воронежская р-н Россошанский;Россошь;UTC+3;50.1701949;39.6226965
Семилуки обл Воронежская р-н Семилукский;Семилуки;UTC+3;51.6951644;39.0190454
Эртиль обл Воронежская р-н Эртильский;Эртиль;UTC+3;51.830932;40.8074182
Буйнакск Респ Дагестан;Буйнакск;UTC+3;42.8214424;47.1165263
Дагестанские Огни Респ Дагестан;Дагестанские Огни;UTC+3;42.1152296;48.1939354
Дербент Респ Дагестан;Дербент;UTC+3;42.058966;48.2907452
Избербаш Респ Дагестан;Избербаш;UTC+3;42.5650962;47.8710051
Каспийск Респ Дагестан;Каспийск;UTC+3;42.8916007;47.6367066
Кизилюрт Респ Дагестан;Кизилюрт;UTC+3;43.203825;46.8729636
Кизляр Респ Дагестан;Кизляр;UTC+3;43.8484083;46.7233699
Махачкала Респ Дагестан;Махачкала;UTC+3;42.9849159;47.5047181
Хасавюрт Респ Дагестан;Хасавюрт;UTC+3;43.2504665;46.5851292
Южно-Сухокумск Респ Дагестан;Южно-Сухокумск;UTC+3;44.6602467;45.6499523
Биробиджан Аобл Еврейская;Биробиджан;UTC+10;48.7946446;132.9217207
Облучье Аобл Еврейская р-н Облученский;Облучье;UTC+10;49.0189345;131.0540102
Балей край Забайкальский р-н Балейский;Балей;UTC+9;51.5823759;116.6379549
Борзя край Забайкальский р-н Борзинский;Борзя;UTC+9;50.3876058;116.5234779
Краснокаменск край Забайкальский р-н Краснокаменский;Краснокаменск;UTC+9;50.0929703;118.0323936
Могоча край Забайкальский р-н Могочинский;Могоча;UTC+9;53.7361398;119.7660867
Нерчинск край Забайкальский р-н Нерчинский;Нерчинск;UTC+9;51.9594977;116.5852383
Петровск-Забайкальский край Забайкальский р-н Петровск-Забайкальский;Петровск-Забайкальский;UTC+9;51.2748592;108.846681
Сретенск край Забайкальский р-н Сретенский;Сретенск;UTC+9;52.2461454;117.7117842
Хилок край Забайкальский р-н Хилокский;Хилок;UTC+9;51.3634856;110.4590898
Чита край Забайкальский;Чита;UTC+9;52.0340142;113.4994
Шилка край Забайкальский р-н Шилкинский;Шилка;UTC+9;51.8497035;116.0334461
Вичуга обл Ивановская р-н Вичугский;Вичуга;UTC+3;57.2044698;41.9132201
Гаврилов Посад обл Ивановская р-н Гаврилово-Посадский;Гаврилов Посад;UTC+3;56.5586946;40.1228906
Заволжск обл Ивановская р-н Заволжский;Заволжск;UTC+3;57.4918141;42.1375625
Иваново обл Ивановская;Иваново;UTC+3;56.9993792;40.9728272
Кинешма обл Ивановская;Кинешма;UTC+3;57.4425463;42.168914
Комсомольск обл Ивановская р-н Комсомольский;Комсомольск;UTC+3;57.0273052;40.3776851
Кохма обл Ивановская р-н Ивановский;Кохма;UTC+3;56.9324606;41.0931657
Наволоки обл Ивановская р-н Кинешемский;Наволоки;UTC+3;57.4679066;41.9608002
Плес обл Ивановская р-н Приволжский;Плес;UTC+3;57.4606031;41.5122672
Приволжск обл Ивановская р-н Приволжский;Приволжск;UTC+3;57.3805743;41.2808565
Пучеж обл Ивановская р-н Пучежский;Пучеж;UTC+3;56.9820688;43.1683321
Родники обл Ивановская р-н Родниковский;Родники;UTC+3;57.1025975;41.7298834
Тейково обл Ивановская р-н Тейковский;Тейково;UTC+3;56.8542719;40.5353874
Фурманов обл Ивановская р-н Фурмановский;Фурманов;UTC+3;57.2539276;41.1054432
Шуя обл Ивановская р-н Шуйский;Шуя;UTC+3;56.8560234;41.3800939
Южа обл Ивановская р-н Южский;Южа;UTC+3;56.5926877;42.0458099
Юрьевец обл Ивановская р-н Юрьевецкий;Юрьевец;UTC+3;57.3177781;43.1110401
Карабулак Респ Ингушетия;Карабулак;UTC+3;43.3055248;44.9094582
Магас Респ Ингушетия;Магас;UTC+3;43.1688611;44.8131207
Малгобек Респ Ингушетия;Малгобек;UTC+3;43.5096646;44.5901963
Назрань Респ Ингушетия;Назрань;UTC+3;43.2257841;44.7645779
Сунжа Респ Ингушетия;Сунжа;UTC+3;43.3204196;45.0476331
Алзамай обл Иркутская р-н Нижнеудинский;Алзамай;UTC+8;55.5551233;98.6643699
Ангарск обл Иркутская;Ангарск;UTC+8;52.544879;103.888543
Байкальск обл Иркутская р-н Слюдянский;Байкальск;UTC+8;51.5230393;104.1487532
Бирюсинск обл Иркутская р-н Тайшетский;Бирюсинск;UTC+8;55.9609167;97.8205348
Бодайбо обл Иркутская;Бодайбо;UTC+8;57.8468636;114.1866287
Братск обл Иркутская;Братск;UTC+8;56.1513108;101.6340035
Вихоревка обл Иркутская р-н Братский;Вихоревка;UTC+8;56.1208145;101.1702926
Железногорск-Илимский обл Иркутская р-н Нижнеилимский;Железногорск-Илимский;UTC+8;56.5847888;104.114275
Зима обл Иркутская;Зима;UTC+8;53.920693;102.0491772
Иркутск обл Иркутская;Иркутск;UTC+8;52.2864036;104.2807466
Киренск обл Иркутская р-н Киренский;Киренск;UTC+8;57.7756595;108.1109412
Нижнеудинск обл Иркутская;Нижнеудинск;UTC+8;54.8968931;99.0314056
Саянск обл Иркутская;Саянск;UTC+8;54.1107238;102.18015
Свирск обл Иркутская;Свирск;UTC+8;53.0842668;103.3364093
Слюдянка обл Иркутская р-н Слюдянский;Слюдянка;UTC+8;51.6563983;103.7187545
Тайшет обл Иркутская;Тайшет;UTC+8;55.9405334;98.0030145
Тулун обл Иркутская;Тулун;UTC+8;54.557162;100.5780603
Усолье-Сибирское обл Иркутская;Усолье-Сибирское;UTC+8;52.7565808;103.6388109
Усть-Илимск обл Иркутская;Усть-Илимск;UTC+8;57.9430504;102.7415734
Усть-Кут обл Иркутская;Усть-Кут;UTC+8;56.7928178;105.7757343
Черемхово обл Иркутская;Черемхово;UTC+8;53.1369095;103.0901268
Шелехов обл Иркутская;Шелехов;UTC+8;52.2102538;104.0973294
Баксан Респ Кабардино-Балкарская;Баксан;UTC+3;43.6819137;43.5345036
Майский Респ Кабардино-Балкарская р-н Майский;Майский;UTC+3;43.6281516;44.0517314
Нальчик Респ Кабардино-Балкарская;Нальчик;UTC+3;43.4845464;43.60713
Нарткала Респ Кабардино-Балкарская р-н Урванский;Нарткала;UTC+3;43.5578075;43.8575925
Прохладный Респ Кабардино-Балкарская;Прохладный;UTC+3;43.7589602;44.0102409
Терек Респ Кабардино-Балкарская р-н Терский;Терек;UTC+3;43.4839358;44.1402161
Тырныауз Респ Кабардино-Балкарская р-н Эльбрусский;Тырныауз;UTC+3;43.3981585;42.9213582
Чегем Респ Кабардино-Балкарская р-н Чегемский;Чегем;UTC+3;43.5671525;43.5865792
Багратионовск обл Калининградская р-н Багратионовский;Багратионовск;UTC+2;54.3866518;20.6418091
Балтийск обл Калининградская р-н Балтийский;Балтийск;UTC+2;54.6513372;19.9140572
Гвардейск обл Калининградская р-н Гвардейский;Гвардейск;UTC+2;54.6588378;21.0501388
Гурьевск обл Калининградская р-н Гурьевский;Гурьевск;UTC+2;54.770638;20.6039767
Гусев обл Калининградская р-н Гусевский;Гусев;UTC+2;54.5915455;22.1942445
Зеленоградск обл Калининградская р-н Зеленоградский;Зеленоградск;UTC+2;54.9600185;20.4753652
Калининград обл Калининградская;Калининград;UTC+2;54.7074702;20.5073241
Краснознаменск обл Калининградская р-н Краснознаменский;Краснознаменск;UTC+2;54.9453423;22.4928745
Ладушкин обл Калининградская;Ладушкин;UTC+2;54.5692156;20.1690153
Мамоново обл Калининградская;Мамоново;UTC+2;54.4646036;19.9453482
Неман обл Калининградская р-н Неманский;Неман;UTC+2;55.0316524;22.0324064
Нестеров обл Калининградская р-н Нестеровский;Нестеров;UTC+2;54.6313814;22.5713736
Озерск обл Калининградская р-н Озерский;Озерск;UTC+2;54.4084705;22.0134438
Пионерский обл Калининградская;Пионерский;UTC+2;54.9516574;20.2277424
Полесск обл Калининградская р-н Полесский;Полесск;UTC+2;54.8625126;21.0998067
Правдинск обл Калининградская р-н Правдинский;Правдинск;UTC+2;54.4430986;21.0085269
Приморск обл Калининградская р-н Балтийский;Приморск;UTC+2;54.7311437;19.9981926
Светлогорск обл Калининградская р-н Светлогорский;Светлогорск;UTC+2;54.9439286;20.1514295
Светлый обл Калининградская;Светлый;UTC+2;54.6772897;20.1357595
Славск обл Калининградская р-н Славский;Славск;UTC+2;55.0449714;21.6742367
Советск обл Калининградская;Советск;UTC+2;55.0809336;21.8886106
Черняховск обл Калининградская р-н Черняховский;Черняховск;UTC+2;54.6244751;21.7969062
Городовиковск Респ Калмыкия р-н Городовиковский;Городовиковск;UTC+3;46.0875083;41.935537
Лагань Респ Калмыкия р-н Лаганский;Лагань;UTC+3;45.3930912;47.3432602
Элиста Респ Калмыкия;Элиста;UTC+3;46.3083344;44.2702088
Балабаново обл Калужская р-н Боровский;Балабаново;UTC+3;55.1773714;36.6566951
Белоусово обл Калужская р-н Жуковский;Белоусово;UTC+3;55.0956803;36.677629
Боровск обл Калужская р-н Боровский;Боровск;UTC+3;55.2130096;36.4926251
Ермолино обл Калужская р-н Боровский;Ермолино;UTC+3;55.1971758;36.5952722
Жиздра обл Калужская р-н Жиздринский;Жиздра;UTC+3;53.7521926;34.7386592
Жуков обл Калужская р-н Жуковский;Жуков;UTC+3;55.0301833;36.7394903
Калуга обл Калужская;Калуга;UTC+3;54.5059848;36.2516245
Киров обл Калужская р-н Кировский;Киров;UTC+3;54.0790111;34.3076201
Козельск обл Калужская р-н Козельский;Козельск;UTC+3;54.0347201;35.780768
Кондрово обл Калужская р-н Дзержинский;Кондрово;UTC+3;54.7959473;35.9274842
Кременки обл Калужская р-н Жуковский;Кременки;UTC+3;54.8862447;37.1168701
Людиново обл Калужская р-н Людиновский;Людиново;UTC+3;53.8700828;34.4385915
Малоярославец обл Калужская р-н Малоярославецкий;Малоярославец;UTC+3;55.0177123;36.4633603
Медынь обл Калужская р-н Медынский;Медынь;UTC+3;54.9689785;35.8872168
Мещовск обл Калужская р-н Мещовский;Мещовск;UTC+3;54.3191471;35.2816918
Мосальск обл Калужская р-н Мосальский;Мосальск;UTC+3;54.4824939;34.9872239
Обнинск обл Калужская;Обнинск;UTC+3;55.0943144;36.6121639
Сосенский обл Калужская р-н Козельский;Сосенский;UTC+3;54.0566016;35.9621646
Спас-Деменск обл Калужская р-н Спас-Деменский;Спас-Деменск;UTC+3;54.409922;34.0189631
Сухиничи обл Калужская р-н Сухиничский;Сухиничи;UTC+3;54.097296;35.3443568
Таруса обл Калужская р-н Тарусский;Таруса;UTC+3;54.7236477;37.1671
Юхнов обл Калужская р-н Юхновский;Юхнов;UTC+3;54.7446445;35.2424346
Вилючинск край Камчатский;Вилючинск;UTC+12;52.9302415;158.4057632
Елизово край Камчатский р-н Елизовский;Елизово;UTC+12;53.1830375;158.3883548
Петропавловск-Камчатский край Камчатский;Петропавловск-Камчатский;UTC+12;53.036908;158.6559254
Карачаевск Респ Карачаево-Черкесская;Карачаевск;UTC+3;43.7732525;41.9143472
Теберда Респ Карачаево-Черкесская;Теберда;UTC+3;43.4437731;41.7415142
Усть-Джегута Респ Карачаево-Черкесская р-н Усть-Джегутинский;Усть-Джегута;UTC+3;44.0838442;41.9711046
Черкесск Респ Карачаево-Черкесская;Черкесск;UTC+3;44.2269425;42.0466704
Беломорск Респ Карелия р-н Беломорский;Беломорск;UTC+3;64.5378417;34.7799462
Кемь Респ Карелия р-н Кемский;Кемь;UTC+3;64.9543539;34.5949263
Кондопога Респ Карелия р-н Кондопожский;Кондопога;UTC+3;62.2059817;34.2682122
Костомукша Респ Карелия;Костомукша;UTC+3;64.5889398;30.6016832
Лахденпохья Респ Карелия р-н Лахденпохский;Лахденпохья;UTC+3;61.518881;30.1996116
Медвежьегорск Респ Карелия р-н Медвежьегорский;Медвежьегорск;UTC+3;62.9127626;34.4568489
Олонец Респ Карелия р-н Олонецкий;Олонец;UTC+3;60.9794025;32.9725519
Петрозаводск Респ Карелия;Петрозаводск;UTC+3;61.7891264;34.3596434
Питкяранта Респ Карелия р-н Питкярантский;Питкяранта;UTC+3;61.5757191;31.4640557
Пудож Респ Карелия р-н Пудожский;Пудож;UTC+3;61.8058821;36.5329941
Сегежа Респ Карелия р-н Сегежский;Сегежа;UTC+3;63.7437572;34.3126982
Сортавала Респ Карелия;Сортавала;UTC+3;61.703367;30.6916998
Суоярви Респ Карелия р-н Суоярвский;Суоярви;UTC+3;62.0787293;32.3499386
Анжеро-Судженск обл Кемеровская область - Кузбасс;Анжеро-Судженск;UTC+7;56.0786281;86.0201278
Белово обл Кемеровская область - Кузбасс;Белово;UTC+7;54.4220968;86.3037373
Березовский обл Кемеровская область - Кузбасс;Березовский;UTC+7;55.6693513;86.2744459
Гурьевск обл Кемеровская область - Кузбасс р-н Гурьевский;Гурьевск;UTC+7;54.2859263;85.9475985
Калтан обл Кемеровская область - Кузбасс;Калтан;UTC+7;53.5210919;87.2771636
Кемерово обл Кемеровская область - Кузбасс;Кемерово;UTC+7;55.3910651;86.0467781
Киселевск обл Кемеровская область - Кузбасс;Киселевск;UTC+7;54.0059999;86.6366116
Ленинск-Кузнецкий обл Кемеровская область - Кузбасс;Ленинск-Кузнецкий;UTC+7;54.6674492;86.1797324
Мариинск обл Кемеровская область - Кузбасс р-н Мариинский;Мариинск;UTC+7;56.2127383;87.7454924
Междуреченск обл Кемеровская область - Кузбасс;Междуреченск;UTC+7;53.6865289;88.0702754
Мыски обл Кемеровская область - Кузбасс;Мыски;UTC+7;53.7125695;87.8055646
Новокузнецк обл Кемеровская область - Кузбасс;Новокузнецк;UTC+7;53.794315;87.2142745
Осинники обл Кемеровская область - Кузбасс;Осинники;UTC+7;53.5988055;87.3371272
Полысаево обл Кемеровская область - Кузбасс;Полысаево;UTC+7;54.6055;86.2809208
Прокопьевск обл Кемеровская область - Кузбасс;Прокопьевск;UTC+7;53.8604265;86.7183577
Салаир обл Кемеровская область - Кузбасс р-н Гурьевский;Салаир;UTC+7;54.2351735;85.8030733
Тайга обл Кемеровская область - Кузбасс;Тайга;UTC+7;56.0622131;85.6207182
Таштагол обл Кемеровская область - Кузбасс р-н Таштагольский;Таштагол;UTC+7;52.759313;87.8476546
Топки обл Кемеровская область - Кузбасс р-н Топкинский;Топки;UTC+7;55.2764707;85.6152619
Юрга обл Кемеровская область - Кузбасс;Юрга;UTC+7;55.7202694;84.8886399
Белая Холуница обл Кировская р-н Белохолуницкий;Белая Холуница;UTC+3;58.8415239;50.8460699
Вятские Поляны обл Кировская р-н Вятскополянский;Вятские Поляны;UTC+3;56.2284817;51.0614855
Зуевка обл Кировская р-н Зуевский;Зуевка;UTC+3;58.4032152;51.1331606
Киров обл Кировская;Киров;UTC+3;58.6035264;49.6679304
Кирово-Чепецк обл Кировская;Кирово-Чепецк;UTC+3;58.5559424;50.0316848
Кирс обл Кировская р-н Верхнекамский;Кирс;UTC+3;59.340056;52.2414437
Котельнич обл Кировская р-н Котельничский;Котельнич;UTC+3;58.3034832;48.3475597
Луза обл Кировская р-н Лузский;Луза;UTC+3;60.6290609;47.2612445
Малмыж обл Кировская р-н Малмыжский;Малмыж;UTC+3;56.5243844;50.6782739
Мураши обл Кировская р-н Мурашинский;Мураши;UTC+3;59.3955383;48.9638417
Нолинск обл Кировская р-н Нолинский;Нолинск;UTC+3;57.5597284;49.93575
Омутнинск обл Кировская р-н Омутнинский;Омутнинск;UTC+3;58.6698913;52.1894564
Орлов обл Кировская р-н Орловский;Орлов;UTC+3;58.5389776;48.8927723
Слободской обл Кировская р-н Слободской;Слободской;UTC+3;58.7311574;50.1669249
Советск обл Кировская р-н Советский;Советск;UTC+3;57.584196;48.9590272
Сосновка обл Кировская р-н Вятскополянский;Сосновка;UTC+3;56.2532741;51.2833642
Уржум обл Кировская р-н Уржумский;Уржум;UTC+3;57.1097477;50.0058097
Яранск обл Кировская р-н Яранский;Яранск;UTC+3;57.3040326;47.8478737
Воркута Респ Коми;Воркута;UTC+3;67.4974082;64.061034
Вуктыл Респ Коми;Вуктыл;UTC+3;63.8615274;57.3165402
Емва Респ Коми р-н Княжпогостский;Емва;UTC+3;62.5965137;50.8732125
Инта Респ Коми;Инта;UTC+3;66.0367316;60.1152961
Микунь Респ Коми р-н Усть-Вымский;Микунь;UTC+3;62.3579068;50.0719503
Печора Респ Коми;Печора;UTC+3;65.148584;57.2239777
Сосногорск Респ Коми;Сосногорск;UTC+3;63.5989841;53.876293
Сыктывкар Респ Коми;Сыктывкар;UTC+3;61.6686617;50.8358151
Усинск Респ Коми;Усинск;UTC+3;65.994147;57.5569423
Ухта Респ Коми;Ухта;UTC+3;63.5565514;53.7014239
Буй обл Костромская р-н Буйский;Буй;UTC+3;58.4733277;41.5306822
Волгореченск обл Костромская;Волгореченск;UTC+3;57.4424559;41.1594201
Галич обл Костромская р-н Галичский;Галич;UTC+3;58.3828191;42.3654013
Кологрив обл Костромская р-н Кологривский;Кологрив;UTC+3;58.8269323;44.3184927
Кострома обл Костромская;Кострома;UTC+3;57.768;40.927
Макарьев обл Костромская р-н Макарьевский;Макарьев;UTC+3;57.8807152;43.8014197
Мантурово обл Костромская р-н Мантуровский;Мантурово;UTC+3;58.3265441;44.757494
Нерехта обл Костромская р-н Нерехтский;Нерехта;UTC+3;57.4543369;40.5723598
Нея обл Костромская р-н Нейский;Нея;UTC+3;58.2943349;43.8780948
Солигалич обл Костромская р-н Солигаличский;Солигалич;UTC+3;59.0784867;42.2878423
Чухлома обл Костромская р-н Чухломский;Чухлома;UTC+3;58.753421;42.6884958
Шарья обл Костромская р-н Шарьинский;Шарья;UTC+3;58.3760542;45.4062414
Абинск край Краснодарский р-н Абинский;Абинск;UTC+3;44.8679655;38.1618157
Анапа край Краснодарский р-н Анапский;Анапа;UTC+3;44.8950433;37.3163282
Апшеронск край Краснодарский р-н Апшеронский;Апшеронск;UTC+3;44.4584006;39.7299824
Армавир край Краснодарский;Армавир;UTC+3;45.0012149;41.1324168
Белореченск край Краснодарский р-н Белореченский;Белореченск;UTC+3;44.7651876;39.8781494
Геленджик край Краснодарский;Геленджик;UTC+3;44.5630007;38.0790852
Горячий Ключ край Краснодарский;Горячий Ключ;UTC+3;44.6344864;39.1354738
Гулькевичи край Краснодарский р-н Гулькевичский;Гулькевичи;UTC+3;45.3605121;40.6918389
Ейск край Краснодарский р-н Ейский;Ейск;UTC+3;46.71157;38.2763895
Кореновск край Краснодарский р-н Кореновский;Кореновск;UTC+3;45.4641703;39.458949
Краснодар край Краснодарский;Краснодар;UTC+3;45.0401604;38.9759647
Кропоткин край Краснодарский р-н Кавказский;Кропоткин;UTC+3;45.4333007;40.5727951
Крымск край Краснодарский р-н Крымский;Крымск;UTC+3;44.9344404;37.9855795
Курганинск край Краснодарский р-н Курганинский;Курганинск;UTC+3;44.8877025;40.5913245
Лабинск край Краснодарский р-н Лабинский;Лабинск;UTC+3;44.6354363;40.7245341
Новокубанск край Краснодарский р-н Новокубанский;Новокубанск;UTC+3;45.1038699;41.0475175
Новороссийск край Краснодарский;Новороссийск;UTC+3;44.7235026;37.7686135
Приморско-Ахтарск край Краснодарский р-н Приморско-Ахтарский;Приморско-Ахтарск;UTC+3;46.0515432;38.1704875
Славянск-на-Кубани край Краснодарский р-н Славянский;Славянск-на-Кубани;UTC+3;45.2603626;38.1259774
Сочи край Краснодарский;Сочи;UTC+3;43.5854551;39.7231548
Темрюк край Краснодарский р-н Темрюкский;Темрюк;UTC+3;45.2610949;37.4454412
Тимашевск край Краснодарский р-н Тимашевский;Тимашевск;UTC+3;45.615923;38.9351837
Тихорецк край Краснодарский р-н Тихорецкий;Тихорецк;UTC+3;45.8546345;40.1260267
Туапсе край Краснодарский р-н Туапсинский;Туапсе;UTC+3;44.1105335;39.0824904
Усть-Лабинск край Краснодарский р-н Усть-Лабинский;Усть-Лабинск;UTC+3;45.2227359;39.6929577
Хадыженск край Краснодарский р-н Апшеронский;Хадыженск;UTC+3;44.4122963;39.5320258
Артемовск край Красноярский р-н Курагинский;Артемовск;UTC+7;54.3473075;93.4358377
Ачинск край Красноярский;Ачинск;UTC+7;56.253907;90.4794397
Боготол край Красноярский;Боготол;UTC+7;56.2098468;89.5299336
Бородино край Красноярский;Бородино;UTC+7;55.9054121;94.9020967
Дивногорск край Красноярский;Дивногорск;UTC+7;55.9576784;92.3800687
Дудинка край Красноярский р-н Таймырский Долгано-Ненецкий;Дудинка;UTC+7;69.4031364;86.1907218
Енисейск край Красноярский;Енисейск;UTC+7;58.4485261;92.1651083
Железногорск край Красноярский;Железногорск;UTC+7;56.2529035;93.532273
Заозерный край Красноярский р-н Рыбинский;Заозерный;UTC+7;55.9617752;94.7091491
Зеленогорск край Красноярский;Зеленогорск;UTC+7;56.1131564;94.5888103
Игарка край Красноярский р-н Туруханский;Игарка;UTC+7;67.4666901;86.5812794
Иланский край Красноярский р-н Иланский;Иланский;UTC+7;56.2374037;96.067267
Канск край Красноярский;Канск;UTC+7;56.2051282;95.7051096
Кодинск край Красноярский р-н Кежемский;Кодинск;UTC+7;58.6032644;99.1797962
Красноярск край Красноярский;Красноярск;UTC+7;56.0093879;92.8524806
Лесосибирск край Красноярский;Лесосибирск;UTC+7;58.221681;92.5037872
Минусинск край Красноярский;Минусинск;UTC+7;53.7104586;91.6872907
Назарово край Красноярский;Назарово;UTC+7;56.0113799;90.4168775
Норильск край Красноярский;Норильск;UTC+7;69.3489978;88.2009846
Сосновоборск край Красноярский;Сосновоборск;UTC+7;56.1202647;93.3354121
Ужур край Красноярский р-н Ужурский;Ужур;UTC+7;55.3141969;89.8333918
Уяр край Красноярский р-н Уярский;Уяр;UTC+7;55.8131263;94.3282601
Шарыпово край Красноярский;Шарыпово;UTC+7;55.5389739;89.1801044
Ялта Респ Крым;Ялта;UTC+3;44.4164605;34.0444797
Алушта Респ Крым;Алушта;UTC+3;44.6764304;34.4100624
Армянск Респ Крым;Армянск;UTC+3;46.1059307;33.6910012
Бахчисарай Респ Крым р-н Бахчисарайский;Бахчисарай;UTC+3;44.7514769;33.8752176
Белогорск Респ Крым р-н Белогорский;Белогорск;UTC+3;45.057202;34.5999029
Джанкой Респ Крым;Джанкой;UTC+3;45.7092306;34.3883372
Евпатория Респ Крым;Евпатория;UTC+3;45.190629;33.367634
Керчь Респ Крым;Керчь;UTC+3;45.3562627;36.4674513
Красноперекопск Респ Крым;Красноперекопск;UTC+3;45.9537576;33.7921939
Саки Респ Крым;Саки;UTC+3;45.1341997;33.6033383
Симферополь Респ Крым;Симферополь;UTC+3;44.9482948;34.1001151
Старый Крым Респ Крым р-н Кировский;Старый Крым;UTC+3;45.029058;35.0901474
Судак Респ Крым;Судак;UTC+3;44.8504679;34.9762034
Феодосия Респ Крым;Феодосия;UTC+3;45.0318393;35.3824259
Щелкино Респ Крым р-н Ленинский;Щелкино;UTC+3;45.4288991;35.825165
Ялта Респ Крым;Ялта;UTC+3;44.4953612;34.166308
Далматово обл Курганская р-н Далматовский;Далматово;UTC+5;56.262114;62.9387011
Катайск обл Курганская р-н Катайский;Катайск;UTC+5;56.290809;62.5800359
Курган обл Курганская;Курган;UTC+5;55.4443883;65.3161963
Куртамыш обл Курганская р-н Куртамышский;Куртамыш;UTC+5;54.9368539;64.4203722
Макушино обл Курганская р-н Макушинский;Макушино;UTC+5;55.2153947;67.2451705
Петухово обл Курганская р-н Петуховский;Петухово;UTC+5;55.0650077;67.8873408
Шадринск обл Курганская;Шадринск;UTC+5;56.0870344;63.6297182
Шумиха обл Курганская р-н Шумихинский;Шумиха;UTC+5;55.2280246;63.2901272
Щучье обл Курганская р-н Щучанский;Щучье;UTC+5;55.2087637;62.7478548
Дмитриев обл Курская р-н Дмитриевский;Дмитриев;UTC+3;52.1268464;35.0739038
Железногорск обл Курская;Железногорск;UTC+3;52.3380202;35.3516867
Курск обл Курская;Курск;UTC+3;51.7303637;36.1925603
Курчатов обл Курская;Курчатов;UTC+3;51.6604083;35.6572224
Льгов обл Курская;Льгов;UTC+3;51.6597148;35.2612491
Обоянь обл Курская р-н Обоянский;Обоянь;UTC+3;51.2119324;36.2755133
Рыльск обл Курская р-н Рыльский;Рыльск;UTC+3;51.5681314;34.6802597
Суджа обл Курская р-н Суджанский;Суджа;UTC+3;51.1918927;35.2720915
Фатеж обл Курская р-н Фатежский;Фатеж;UTC+3;52.0917728;35.8538706
Щигры обл Курская;Щигры;UTC+3;51.8786014;36.8910945
Бокситогорск обл Ленинградская р-н Бокситогорский;Бокситогорск;UTC+3;59.4734797;33.845688
Волосово обл Ленинградская р-н Волосовский;Волосово;UTC+3;59.4445408;29.4923355
Волхов обл Ленинградская р-н Волховский;Волхов;UTC+3;59.9005958;32.3520756
Всеволожск обл Ленинградская р-н Всеволожский;Всеволожск;UTC+3;60.0191278;30.6456718
Выборг обл Ленинградская р-н Выборгский;Выборг;UTC+3;60.7130801;28.7328336
Высоцк обл Ленинградская р-н Выборгский;Высоцк;UTC+3;60.6296236;28.5709314
Гатчина обл Ленинградская р-н Гатчинский;Гатчина;UTC+3;59.565237;30.1282473
Ивангород обл Ленинградская р-н Кингисеппский;Ивангород;UTC+3;59.3766119;28.2231659
Каменногорск обл Ленинградская р-н Выборгский;Каменногорск;UTC+3;60.950855;29.1308372
Кингисепп обл Ленинградская р-н Кингисеппский;Кингисепп;UTC+3;59.3740435;28.6112444
Кириши обл Ленинградская р-н Киришский;Кириши;UTC+3;59.4742862;32.0624947
Кировск обл Ленинградская р-н Кировский;Кировск;UTC+3;59.8754216;30.981364
Коммунар обл Ленинградская р-н Гатчинский;Коммунар;UTC+3;59.6215133;30.3934125
Кудрово обл Ленинградская р-н Всеволожский;Кудрово;UTC+3;59.9075226;30.5121008
Лодейное Поле обл Ленинградская р-н Лодейнопольский;Лодейное Поле;UTC+3;60.7320936;33.5521022
Луга обл Ленинградская р-н Лужский;Луга;UTC+3;58.7374031;29.8465776
Любань обл Ленинградская р-н Тосненский;Любань;UTC+3;59.3493847;31.2484801
Мурино обл Ленинградская р-н Всеволожский;Мурино;UTC+3;60.044862;30.4571456
Никольское обл Ленинградская р-н Тосненский;Никольское;UTC+3;59.7043309;30.7874571
Новая Ладога обл Ленинградская р-н Волховский;Новая Ладога;UTC+3;60.1100135;32.3141203
Отрадное обл Ленинградская р-н Кировский;Отрадное;UTC+3;59.7726848;30.7988557
Пикалево обл Ленинградская р-н Бокситогорский;Пикалево;UTC+3;59.5132022;34.1772776
Подпорожье обл Ленинградская р-н Подпорожский;Подпорожье;UTC+3;60.9127549;34.1567664
Приморск обл Ленинградская р-н Выборгский;Приморск;UTC+3;60.3660209;28.6135772
Приозерск обл Ленинградская р-н Приозерский;Приозерск;UTC+3;61.0330896;30.1587851
Светогорск обл Ленинградская р-н Выборгский;Светогорск;UTC+3;61.1111282;28.8725865
Сертолово обл Ленинградская р-н Всеволожский;Сертолово;UTC+3;60.1446932;30.2095918
Сланцы обл Ленинградская р-н Сланцевский;Сланцы;UTC+3;59.1178185;28.0881475
Сосновый Бор обл Ленинградская;Сосновый Бор;UTC+3;59.8772884;29.1291619
Сясьстрой обл Ленинградская р-н Волховский;Сясьстрой;UTC+3;60.1401739;32.5601559
Тихвин обл Ленинградская р-н Тихвинский;Тихвин;UTC+3;59.6272904;33.5072731
Тосно обл Ленинградская р-н Тосненский;Тосно;UTC+3;59.5407098;30.877812
Шлиссельбург обл Ленинградская р-н Кировский;Шлиссельбург;UTC+3;59.9443714;31.0333365
Грязи обл Липецкая р-н Грязинский;Грязи;UTC+3;52.4874097;39.9331142
Данков обл Липецкая р-н Данковский;Данков;UTC+3;53.2577411;39.1456184
Елец обл Липецкая;Елец;UTC+3;52.6152411;38.5289342
Задонск обл Липецкая р-н Задонский;Задонск;UTC+3;52.4004179;38.9205032
Лебедянь обл Липецкая р-н Лебедянский;Лебедянь;UTC+3;53.0156117;39.143536
Липецк обл Липецкая;Липецк;UTC+3;52.610249;39.5947883
Усмань обл Липецкая р-н Усманский;Усмань;UTC+3;52.0442648;39.726401
Чаплыгин обл Липецкая р-н Чаплыгинский;Чаплыгин;UTC+3;53.24048;39.9670973
Магадан обл Магаданская;Магадан;UTC+11;59.5681332;150.8084956
Сусуман обл Магаданская р-н Сусуманский;Сусуман;UTC+11;62.7805882;148.1540281
Волжск Респ Марий Эл;Волжск;UTC+3;55.8623156;48.3715083
Звенигово Респ Марий Эл р-н Звениговский;Звенигово;UTC+3;55.9738571;48.0170245
Йошкар-Ола Респ Марий Эл;Йошкар-Ола;UTC+3;56.6343662;47.8999706
Козьмодемьянск Респ Марий Эл;Козьмодемьянск;UTC+3;56.3334036;46.546675
Ардатов Респ Мордовия р-н Ардатовский;Ардатов;UTC+3;54.8465544;46.2411232
Инсар Респ Мордовия р-н Инсарский;Инсар;UTC+3;53.8770022;44.3696566
Ковылкино Респ Мордовия;Ковылкино;UTC+3;54.0391072;43.9191539
Краснослободск Респ Мордовия р-н Краснослободский;Краснослободск;UTC+3;54.4248207;43.7845011
Рузаевка Респ Мордовия;Рузаевка;UTC+3;54.0581967;44.9490466
Саранск Респ Мордовия;Саранск;UTC+3;54.1809332;45.1862632
Темников Респ Мордовия р-н Темниковский;Темников;UTC+3;54.6310583;43.2161099
Москва;;UTC+3;55.7540471;37.620405
Апрелевка обл Московская г Наро-Фоминск;Апрелевка;UTC+3;55.5276918;37.065143
Балашиха обл Московская;Балашиха;UTC+3;55.796389;37.938283
Белоозёрский обл Московская г Воскресенск;Белоозёрский;UTC+3;55.4595766;38.4389742
Бронницы обл Московская;Бронницы;UTC+3;55.4255379;38.264145
Верея обл Московская г Наро-Фоминск;Верея;UTC+3;55.343369;36.185694
Видное обл Московская;Видное;UTC+3;55.551725;37.7061984
Волоколамск обл Московская;Волоколамск;UTC+3;56.0356499;35.9585112
Воскресенск обл Московская;;UTC+3;55.3071519;38.7027953
Высоковск обл Московская г Клин;Высоковск;UTC+3;56.3359513;36.5251837
Голицыно обл Московская г Одинцово;Голицыно;UTC+3;55.6190582;36.9856793
Дедовск обл Московская г Истра;Дедовск;UTC+3;55.8703276;37.1245043
Дзержинский обл Московская;Дзержинский;UTC+3;55.6240869;37.8440276
Дмитров обл Московская;;UTC+3;56.3477457;37.526672
Долгопрудный обл Московская;Долгопрудный;UTC+3;55.9385999;37.5101021
Домодедово обл Московская;Домодедово;UTC+3;55.4363283;37.7664984
Дрезна обл Московская г Орехово-Зуево;Дрезна;UTC+3;55.7443143;38.8498479
Дубна обл Московская;Дубна;UTC+3;56.741786;37.1757223
Егорьевск обл Московская;Егорьевск;UTC+3;55.3830113;39.0358317
Жуковский обл Московская;Жуковский;UTC+3;55.599803;38.1224298
Зарайск обл Московская;Зарайск;UTC+3;54.762456;38.8850978
Звенигород обл Московская г Одинцово;Звенигород;UTC+3;55.7297089;36.8554029
Ивантеевка обл Московская;Ивантеевка;UTC+3;55.9741665;37.9207539
Истра обл Московская ;;UTC+3;55.9062267;36.8601454
Кашира обл Московская;Кашира;UTC+3;54.853337;38.1904392
Клин обл Московская ;;UTC+3;56.3425605;36.7240032
Коломна обл Московская;Коломна;UTC+3;55.102814;38.7531002
Королёв обл Московская;Королёв;UTC+3;55.9161773;37.8545415
Котельники обл Московская;Котельники;UTC+3;55.6597925;37.8631156
Красноармейск обл Московская;Красноармейск;UTC+3;56.105426;38.140838
Красногорск обл Московская;Красногорск;UTC+3;55.8317203;37.3295266
Краснозаводск Сергиев Посад обл Московская;Краснозаводск;UTC+3;56.4409979;38.2320307
Краснознаменск обл Московская;Краснознаменск;UTC+3;55.5978959;37.0393709
Кубинка обл Московская Одинцово;Кубинка;UTC+3;55.5754955;36.6951995
Орехово-Зуево Куровское обл Московская;Куровское;UTC+3;55.5792277;38.9207723
Ликино-Дулёво обл Московская;Ликино-Дулёво;UTC+3;55.7078257;38.9578093
Лобня обл Московская;Лобня;UTC+3;56.0328881;37.4614035
Лосино-Петровский обл Московская;Лосино-Петровский;UTC+3;55.8713214;38.200599
Луховицы обл Московская;Луховицы;UTC+3;54.9652077;39.0260266
Лыткарино обл Московская;Лыткарино;UTC+3;55.5778163;37.9033507
Люберцы обл Московская;Люберцы;UTC+3;55.676499;37.898125
Можайск обл Московская;Можайск;UTC+3;55.5069259;36.024043
Мытищи обл Московская;Мытищи;UTC+3;55.9105782;37.7363579
Наро-Фоминск обл Московская;;UTC+3;55.386185;36.734484
Ногинск обл Московская;;UTC+3;55.8686133;38.4622104
Одинцово обл Московская;;UTC+3;55.6789455;37.263686
Озёры обл Московская;Озёры;UTC+3;54.8541006;38.5599196
Орехово-Зуево обл Московская;;UTC+3;55.8151421;38.9869822
Павловский Посад обл Московская;Павловский Посад;UTC+3;55.7807244;38.6596983
Пересвет обл Московская г Сергиев Посад;Пересвет;UTC+3;56.4158326;38.1733534
Подольск обл Московская;Подольск;UTC+3;55.4389322;37.5703482
Протвино обл Московская;Протвино;UTC+3;54.8705984;37.2182749
Пушкино обл Московская;Пушкино;UTC+3;56.0103638;37.8471403
Пущино обл Московская;Пущино;UTC+3;54.8324412;37.6210346
Раменское обл Московская;Раменское;UTC+3;55.5495132;38.2728914
Реутов обл Московская;Реутов;UTC+3;55.7582621;37.8618553
Рошаль обл Московская г Шатура;Рошаль;UTC+3;55.6632776;39.8656147
Руза обл Московская;Руза;UTC+3;55.7014744;36.1959206
Сергиев Посад обл Московская;;UTC+3;56.3062548;38.1502661
Серпухов обл Московская;Серпухов;UTC+3;54.9226466;37.4033859
Солнечногорск обл Московская;Солнечногорск;UTC+3;56.185102;36.977631
Старая Купавна обл Московская г Ногинск;Старая Купавна;UTC+3;55.810648;38.175624
Ступино обл Московская;Ступино;UTC+3;54.886274;38.078228
Талдом обл Московская;Талдом;UTC+3;56.7308564;37.5276003
Фрязино обл Московская;Фрязино;UTC+3;55.9590588;38.0410235
Химки обл Московская;Химки;UTC+3;55.888657;37.4303702
Хотьково обл Московская г Сергиев Посад;Хотьково;UTC+3;56.2516982;37.9396017
Черноголовка обл Московская;Черноголовка;UTC+3;56.010005;38.379245
Чехов обл Московская;Чехов;UTC+3;55.1508011;37.4533252
Шатура обл Московская;;UTC+3;55.5777427;39.5445712
Щёлково обл Московская;Щёлково;UTC+3;55.9233801;37.9783707
Электрогорск обл Московская;Электрогорск;UTC+3;55.8780241;38.7806752
Электросталь обл Московская;Электросталь;UTC+3;55.7847291;38.4447045
Электроугли обл Московская г Ногинск;Электроугли;UTC+3;55.7170877;38.2192563
Яхрома обл Московская;Яхрома;UTC+3;56.2890516;37.4831799
Апатиты обл Мурманская;Апатиты;UTC+3;67.5677761;33.4067929
Гаджиево обл Мурманская;Гаджиево;UTC+3;69.2491311;33.315341
Заозерск обл Мурманская;Заозерск;UTC+3;69.4003584;32.4501496
Заполярный обл Мурманская р-н Печенгский;Заполярный;UTC+3;69.4132852;30.7984312
Кандалакша обл Мурманская р-н Кандалакшский;Кандалакша;UTC+3;67.1567974;32.4143218
Кировск обл Мурманская;Кировск;UTC+3;67.6150424;33.663735
Ковдор обл Мурманская р-н Ковдорский;Ковдор;UTC+3;67.5661417;30.4741941
Кола обл Мурманская р-н Кольский;Кола;UTC+3;68.8786028;33.0262299
Мончегорск обл Мурманская;Мончегорск;UTC+3;67.9386153;32.9359719
Мурманск обл Мурманская;Мурманск;UTC+3;69.007721;33.0685865
Оленегорск обл Мурманская;Оленегорск;UTC+3;68.1422058;33.2669407
Островной обл Мурманская;Островной;UTC+3;68.0510344;39.5077846
Полярные Зори обл Мурманская;Полярные Зори;UTC+3;67.373084;32.4975636
Полярный обл Мурманская;Полярный;UTC+3;69.1989583;33.4508591
Североморск обл Мурманская;Североморск;UTC+3;69.0766801;33.4177759
Снежногорск обл Мурманская;Снежногорск;UTC+3;69.1921409;33.2383502
Нарьян-Мар АО Ненецкий;Нарьян-Мар;UTC+3;67.6379672;53.0069565
Арзамас обл Нижегородская;Арзамас;UTC+3;55.3945814;43.8408141
Балахна обл Нижегородская р-н Балахнинский;Балахна;UTC+3;56.495036;43.5758423
Богородск обл Нижегородская р-н Богородский;Богородск;UTC+3;56.1020828;43.5135442
Бор обл Нижегородская;Бор;UTC+3;56.3565458;44.0646481
Ветлуга обл Нижегородская р-н Ветлужский;Ветлуга;UTC+3;57.8559204;45.7761957
Володарск обл Нижегородская р-н Володарский;Володарск;UTC+3;56.2169751;43.1596417
Ворсма обл Нижегородская р-н Павловский;Ворсма;UTC+3;55.989943;43.2718859
Выкса обл Нижегородская;Выкса;UTC+3;55.3207727;42.1678834
Горбатов обл Нижегородская р-н Павловский;Горбатов;UTC+3;56.1307769;43.0626185
Городец обл Нижегородская р-н Городецкий;Городец;UTC+3;56.6449218;43.4723104
Дзержинск обл Нижегородская;Дзержинск;UTC+3;56.2376047;43.4599416
Заволжье обл Нижегородская р-н Городецкий;Заволжье;UTC+3;56.6404286;43.3872492
Княгинино обл Нижегородская р-н Княгининский;Княгинино;UTC+3;55.8205915;45.032337
Кстово обл Нижегородская р-н Кстовский;Кстово;UTC+3;56.1432084;44.1664198
Кулебаки обл Нижегородская;Кулебаки;UTC+3;55.4296181;42.5125538
Лукоянов обл Нижегородская р-н Лукояновский;Лукоянов;UTC+3;55.0326225;44.4933807
Лысково обл Нижегородская р-н Лысковский;Лысково;UTC+3;56.0262359;45.035771
Навашино обл Нижегородская;Навашино;UTC+3;55.543811;42.1887089
Нижний Новгород обл Нижегородская;Нижний Новгород;UTC+3;56.3240627;44.0053913
Павлово обл Нижегородская р-н Павловский;Павлово;UTC+3;55.9797564;43.0995042
Первомайск обл Нижегородская;Первомайск;UTC+3;54.8675792;43.8013992
Перевоз обл Нижегородская;Перевоз;UTC+3;55.5967718;44.5448369
Саров обл Нижегородская;Саров;UTC+3;54.9228268;43.3448089
Семенов обл Нижегородская;Семенов;UTC+3;56.7889794;44.4902885
Сергач обл Нижегородская р-н Сергачский;Сергач;UTC+3;55.5201515;45.4813231
Урень обл Нижегородская р-н Уренский;Урень;UTC+3;57.4612572;45.7833293
Чкаловск обл Нижегородская р-н Чкаловский;Чкаловск;UTC+3;56.7651262;43.242077
Шахунья обл Нижегородская;Шахунья;UTC+3;57.6764293;46.6129009
Боровичи обл Новгородская р-н Боровичский;Боровичи;UTC+3;58.3840197;33.9175929
Валдай обл Новгородская р-н Валдайский;Валдай;UTC+3;57.9823766;33.2369436
Великий Новгород обл Новгородская;Великий Новгород;UTC+3;58.5213846;31.2755394
Малая Вишера обл Новгородская р-н Маловишерский;Малая Вишера;UTC+3;58.8458379;32.2247401
Окуловка обл Новгородская р-н Окуловский;Окуловка;UTC+3;58.3910296;33.2901557
Пестово обл Новгородская р-н Пестовский;Пестово;UTC+3;58.5973723;35.8143898
Сольцы обл Новгородская р-н Солецкий;Сольцы;UTC+3;58.1201281;30.309351
Старая Русса обл Новгородская р-н Старорусский;Старая Русса;UTC+3;57.990737;31.3554897
Холм обл Новгородская р-н Холмский;Холм;UTC+3;57.145108;31.1787499
Чудово обл Новгородская р-н Чудовский;Чудово;UTC+3;59.1248394;31.6866241
Барабинск обл Новосибирская р-н Барабинский;Барабинск;UTC+7;55.35146;78.3464506
Бердск обл Новосибирская;Бердск;UTC+7;54.7582156;83.1070605
Болотное обл Новосибирская р-н Болотнинский;Болотное;UTC+7;55.6692421;84.3906889
Искитим обл Новосибирская;Искитим;UTC+7;54.6267603;83.2951244
Карасук обл Новосибирская р-н Карасукский;Карасук;UTC+7;53.7343189;78.0422967
Каргат обл Новосибирская р-н Каргатский;Каргат;UTC+7;55.1945666;80.2829495
Куйбышев обл Новосибирская р-н Куйбышевский;Куйбышев;UTC+7;55.4685094;78.3242048
Купино обл Новосибирская р-н Купинский;Купино;UTC+7;54.366055;77.2973368
Новосибирск обл Новосибирская;Новосибирск;UTC+7;55.028191;82.9211489
Обь обл Новосибирская;Обь;UTC+7;54.9945576;82.6937181
Татарск обл Новосибирская р-н Татарский;Татарск;UTC+7;55.2146167;75.9739914
Тогучин обл Новосибирская р-н Тогучинский;Тогучин;UTC+7;55.2251631;84.4104118
Черепаново обл Новосибирская р-н Черепановский;Черепаново;UTC+7;54.2206476;83.3724521
Чулым обл Новосибирская р-н Чулымский;Чулым;UTC+7;55.0906867;80.9592508
Исилькуль обл Омская р-н Исилькульский;Исилькуль;UTC+6;54.9096002;71.2816284
Калачинск обл Омская р-н Калачинский;Калачинск;UTC+6;55.0598155;74.5653644
Называевск обл Омская р-н Называевский;Называевск;UTC+6;55.5689323;71.3503426
Омск обл Омская;Омск;UTC+6;54.9848566;73.3674517
Тара обл Омская р-н Тарский;Тара;UTC+6;56.9160511;74.3649194
Тюкалинск обл Омская р-н Тюкалинский;Тюкалинск;UTC+6;55.8703415;72.1954747
Абдулино обл Оренбургская р-н Абдулинский;Абдулино;UTC+5;53.6778906;53.6472483
Бугуруслан обл Оренбургская;Бугуруслан;UTC+5;53.6523728;52.4326853
Бузулук обл Оренбургская;Бузулук;UTC+5;52.7881277;52.2624877
Гай обл Оренбургская;Гай;UTC+5;51.4649189;58.4436875
Кувандык обл Оренбургская;Кувандык;UTC+5;51.4783857;57.3612636
Медногорск обл Оренбургская;Медногорск;UTC+5;51.4037617;57.583163
Новотроицк обл Оренбургская;Новотроицк;UTC+5;51.1964202;58.3018192
Оренбург обл Оренбургская;Оренбург;UTC+5;51.7875092;55.1018828
Орск обл Оренбургская;Орск;UTC+5;51.2294282;58.4752777
Соль-Илецк обл Оренбургская р-н Соль-Илецкий;Соль-Илецк;UTC+5;51.1633736;54.9896726
Сорочинск обл Оренбургская;Сорочинск;UTC+5;52.426685;53.1542745
Ясный обл Оренбургская;Ясный;UTC+5;51.036838;59.874344
Болхов обл Орловская р-н Болховский;Болхов;UTC+3;53.4438496;36.0076833
Дмитровск обл Орловская р-н Дмитровский;Дмитровск;UTC+3;52.5054851;35.1415009
Ливны обл Орловская;Ливны;UTC+3;52.4284558;37.6039506
Малоархангельск обл Орловская р-н Малоархангельский;Малоархангельск;UTC+3;52.4002192;36.5038579
Мценск обл Орловская;Мценск;UTC+3;53.2788438;36.5749105
Новосиль обл Орловская р-н Новосильский;Новосиль;UTC+3;52.97454;37.0437146
Орёл обл Орловская;Орёл;UTC+3;52.9671298;36.0696427
Белинский обл Пензенская р-н Белинский;Белинский;UTC+3;52.9640996;43.4183212
Городище обл Пензенская р-н Городищенский;Городище;UTC+3;53.2726916;45.7026142
Заречный обл Пензенская;Заречный;UTC+3;53.1960836;45.1689907
Каменка обл Пензенская р-н Каменский;Каменка;UTC+3;53.1855463;44.0469717
Кузнецк обл Пензенская;Кузнецк;UTC+3;53.1130888;46.605092
Нижний Ломов обл Пензенская р-н Нижнеломовский;Нижний Ломов;UTC+3;53.5300905;43.6730217
Никольск обл Пензенская р-н Никольский;Никольск;UTC+3;53.7137496;46.0799857
Пенза обл Пензенская;Пенза;UTC+3;53.1753314;45.0348625
Сердобск обл Пензенская р-н Сердобский;Сердобск;UTC+3;52.4697595;44.2122414
Спасск обл Пензенская р-н Спасский;Спасск;UTC+3;53.9271974;43.1859073
Сурск обл Пензенская р-н Городищенский;Сурск;UTC+3;53.0761357;45.6910796
Александровск край Пермский;Александровск;UTC+5;59.1613221;57.5763459
Березники край Пермский;Березники;UTC+5;59.4079923;56.8039427
Верещагино край Пермский р-н Верещагинский;Верещагино;UTC+5;58.0797571;54.6581309
Горнозаводск край Пермский р-н Горнозаводский;Горнозаводск;UTC+5;58.3742532;58.3231716
Гремячинск край Пермский;Гремячинск;UTC+5;58.5626082;57.8520572
Губаха край Пермский;Губаха;UTC+5;58.8371721;57.554533
Добрянка край Пермский;Добрянка;UTC+5;58.469685;56.4130737
Кизел край Пермский;Кизел;UTC+5;59.0512783;57.6471028
Красновишерск край Пермский р-н Красновишерский;Красновишерск;UTC+5;60.3901321;57.0535682
Краснокамск край Пермский;Краснокамск;UTC+5;58.0822065;55.7479936
Кудымкар край Пермский;Кудымкар;UTC+5;59.0167925;54.6572508
Кунгур край Пермский;Кунгур;UTC+5;57.4283296;56.9438656
Лысьва край Пермский;Лысьва;UTC+5;58.0995875;57.8086825
Нытва край Пермский р-н Нытвенский;Нытва;UTC+5;57.9336725;55.3356084
Оса край Пермский р-н Осинский;Оса;UTC+5;57.2889515;55.4688668
Оханск край Пермский р-н Оханский;Оханск;UTC+5;57.7180034;55.3872469
Очер край Пермский р-н Очерский;Очер;UTC+5;57.8852686;54.7161091
Пермь край Пермский;Пермь;UTC+5;58.0102583;56.2342034
Соликамск край Пермский;Соликамск;UTC+5;59.6482998;56.771009
Усолье край Пермский р-н Усольский;Усолье;UTC+5;59.4277573;56.6837872
Чайковский край Пермский;Чайковский;UTC+5;56.7781501;54.1477965
Чердынь край Пермский р-н Чердынский;Чердынь;UTC+5;60.4011933;56.4799933
Чермоз край Пермский р-н Ильинский;Чермоз;UTC+5;58.7842834;56.1507138
Чернушка край Пермский р-н Чернушинский;Чернушка;UTC+5;56.5160768;56.0763049
Чусовой край Пермский;Чусовой;UTC+5;58.2974596;57.8193615
Арсеньев край Приморский;Арсеньев;UTC+10;44.1622031;133.2696209
Артем край Приморский;Артем;UTC+10;43.3501675;132.1596175
Большой Камень край Приморский;Большой Камень;UTC+10;43.1111742;132.3480082
Владивосток край Приморский;Владивосток;UTC+10;43.1164904;131.8823937
Дальнегорск край Приморский;Дальнегорск;UTC+10;44.5539457;135.5662716
Дальнереченск край Приморский;Дальнереченск;UTC+10;45.9308483;133.7316907
Лесозаводск край Приморский;Лесозаводск;UTC+10;45.4780092;133.4186199
Находка край Приморский;Находка;UTC+10;42.8239372;132.8927361
Партизанск край Приморский;Партизанск;UTC+10;43.1280578;133.1264567
Спасск-Дальний край Приморский;Спасск-Дальний;UTC+10;44.5901175;132.8157288
Уссурийск край Приморский;Уссурийск;UTC+10;43.7971818;131.9518229
Фокино край Приморский;Фокино;UTC+10;42.9706317;132.4110196
Великие Луки обл Псковская;Великие Луки;UTC+3;56.332208;30.5508641
Гдов обл Псковская р-н Гдовский;Гдов;UTC+3;58.7432429;27.8264809
Дно обл Псковская р-н Дновский;Дно;UTC+3;57.826974;29.9629389
Невель обл Псковская р-н Невельский;Невель;UTC+3;56.0201973;29.9239983
Новоржев обл Псковская р-н Новоржевский;Новоржев;UTC+3;57.029807;29.3433083
Новосокольники обл Псковская р-н Новосокольнический;Новосокольники;UTC+3;56.3408431;30.1527573
Опочка обл Псковская р-н Опочецкий;Опочка;UTC+3;56.710725;28.6717519
Остров обл Псковская р-н Островский;Остров;UTC+3;57.3451528;28.3437593
Печоры обл Псковская р-н Печорский;Печоры;UTC+3;57.8145817;27.622259
Порхов обл Псковская р-н Порховский;Порхов;UTC+3;57.7765219;29.5436626
Псков обл Псковская;Псков;UTC+3;57.8194415;28.3317198
Пустошка обл Псковская р-н Пустошкинский;Пустошка;UTC+3;56.3374813;29.3668055
Пыталово обл Псковская р-н Пыталовский;Пыталово;UTC+3;57.0637952;27.9236214
Себеж обл Псковская р-н Себежский;Себеж;UTC+3;56.2908554;28.4724326
Азов обл Ростовская;Азов;UTC+3;47.1121589;39.4232555
Аксай обл Ростовская р-н Аксайский;Аксай;UTC+3;47.2676314;39.8756872
Батайск обл Ростовская;Батайск;UTC+3;47.1383299;39.7507179
Белая Калитва обл Ростовская р-н Белокалитвинский;Белая Калитва;UTC+3;48.1769737;40.8033529
Волгодонск обл Ростовская;Волгодонск;UTC+3;47.5165338;42.1984951
Гуково обл Ростовская;Гуково;UTC+3;48.0448904;39.9484672
Донецк обл Ростовская;Донецк;UTC+3;48.3350706;39.945891
Зверево обл Ростовская;Зверево;UTC+3;48.0435487;40.1265822
Зерноград обл Ростовская р-н Зерноградский;Зерноград;UTC+3;46.8495958;40.312837
Каменск-Шахтинский обл Ростовская;Каменск-Шахтинский;UTC+3;48.3205326;40.2689583
Константиновск обл Ростовская р-н Константиновский;Константиновск;UTC+3;47.5773717;41.0967445
Красный Сулин обл Ростовская р-н Красносулинский;Красный Сулин;UTC+3;47.8831311;40.0781298
Миллерово обл Ростовская р-н Миллеровский;Миллерово;UTC+3;48.9260077;40.3984087
Морозовск обл Ростовская р-н Морозовский;Морозовск;UTC+3;48.3511807;41.8309225
Новочеркасск обл Ростовская;Новочеркасск;UTC+3;47.411919;40.1042098
Новошахтинск обл Ростовская;Новошахтинск;UTC+3;47.757773;39.9363697
Пролетарск обл Ростовская р-н Пролетарский;Пролетарск;UTC+3;46.7038963;41.727594
Ростов-на-Дону обл Ростовская;Ростов-на-Дону;UTC+3;47.2224566;39.718803
Сальск обл Ростовская р-н Сальский;Сальск;UTC+3;46.4752095;41.5410415
Семикаракорск обл Ростовская р-н Семикаракорский;Семикаракорск;UTC+3;47.5177337;40.8114167
Таганрог обл Ростовская;Таганрог;UTC+3;47.2094917;38.9350989
Цимлянск обл Ростовская р-н Цимлянский;Цимлянск;UTC+3;47.6477448;42.0931505
Шахты обл Ростовская;Шахты;UTC+3;47.7085287;40.2159846
Касимов обл Рязанская;Касимов;UTC+3;54.9373475;41.3913211
Кораблино обл Рязанская р-н Кораблинский;Кораблино;UTC+3;53.9246659;40.0227745
Михайлов обл Рязанская р-н Михайловский;Михайлов;UTC+3;54.2297402;39.0091481
Новомичуринск обл Рязанская р-н Пронский;Новомичуринск;UTC+3;54.0376572;39.74654
Рыбное обл Рязанская р-н Рыбновский;Рыбное;UTC+3;54.7256164;39.5134398
Ряжск обл Рязанская р-н Ряжский;Ряжск;UTC+3;53.7067584;40.0522274
Рязань обл Рязанская;Рязань;UTC+3;54.6254445;39.7358609
Сасово обл Рязанская;Сасово;UTC+3;54.3508885;41.9117422
Скопин обл Рязанская;Скопин;UTC+3;53.823543;39.5492421
Спас-Клепики обл Рязанская р-н Клепиковский;Спас-Клепики;UTC+3;55.1291721;40.1745338
Спасск-Рязанский обл Рязанская р-н Спасский;Спасск-Рязанский;UTC+3;54.4070719;40.3763426
Шацк обл Рязанская р-н Шацкий;Шацк;UTC+3;54.0287312;41.7181803
Жигулевск обл Самарская;Жигулевск;UTC+4;53.4011981;49.4945176
Кинель обл Самарская;Кинель;UTC+4;53.2210298;50.6343776
Нефтегорск обл Самарская р-н Нефтегорский;Нефтегорск;UTC+4;52.7972914;51.1637392
Новокуйбышевск обл Самарская;Новокуйбышевск;UTC+4;53.0994565;49.9477382
Октябрьск обл Самарская;Октябрьск;UTC+4;53.1640488;48.670762
Отрадный обл Самарская;Отрадный;UTC+4;53.3800848;51.3438605
Похвистнево обл Самарская;Похвистнево;UTC+4;53.6498299;52.1235156
Самара обл Самарская;Самара;UTC+4;53.1950306;50.1069518
Сызрань обл Самарская;Сызрань;UTC+4;53.1558674;48.4744629
Тольятти обл Самарская;Тольятти;UTC+4;53.5205348;49.3894028
Чапаевск обл Самарская;Чапаевск;UTC+4;52.928961;49.8673269
Санкт-Петербург;;UTC+3;59.9391313;30.3159004
Аркадак обл Саратовская р-н Аркадакский;Аркадак;UTC+4;51.938831;43.4999221
Аткарск обл Саратовская;Аткарск;UTC+4;51.8736062;45.0003247
Балаково обл Саратовская;Балаково;UTC+4;52.0224231;47.7827765
Балашов обл Саратовская;Балашов;UTC+4;51.5388697;43.1839757
Вольск обл Саратовская;Вольск;UTC+4;52.0459865;47.3873595
Ершов обл Саратовская р-н Ершовский;Ершов;UTC+4;51.3508505;48.2762226
Калининск обл Саратовская р-н Калининский;Калининск;UTC+4;51.4993591;44.4710435
Красноармейск обл Саратовская;Красноармейск;UTC+4;51.023541;45.695044
Красный Кут обл Саратовская р-н Краснокутский;Красный Кут;UTC+4;50.9598317;46.9712016
Маркс обл Саратовская;Маркс;UTC+4;51.7133337;46.7400339
Новоузенск обл Саратовская р-н Новоузенский;Новоузенск;UTC+4;50.455199;48.1413153
Петровск обл Саратовская р-н Петровский;Петровск;UTC+4;52.3094237;45.3851877
Пугачев обл Саратовская;Пугачев;UTC+4;52.0159921;48.7972223
Ртищево обл Саратовская;Ртищево;UTC+4;52.2616271;43.7842248
Саратов обл Саратовская;Саратов;UTC+4;51.533557;46.034257
Хвалынск обл Саратовская;Хвалынск;UTC+4;52.4951572;48.1045771
Шиханы обл Саратовская;Шиханы;UTC+4;52.1147391;47.2023118
Энгельс обл Саратовская;Энгельс;UTC+4;51.4854003;46.126722
Александровск-Сахалинский обл Сахалинская р-н Александровск-Сахалинский;Александровск-Сахалинский;UTC+11;50.8974378;142.1578559
Анива обл Сахалинская р-н Анивский;Анива;UTC+11;46.713152;142.5265804
Долинск обл Сахалинская р-н Долинский;Долинск;UTC+11;47.3255783;142.7945071
Корсаков обл Сахалинская р-н Корсаковский;Корсаков;UTC+11;46.6324545;142.799445
Курильск обл Сахалинская р-н Курильский;Курильск;UTC+11;45.2270954;147.8796323
Макаров обл Сахалинская р-н Макаровский;Макаров;UTC+11;48.6236334;142.7803205
Невельск обл Сахалинская р-н Невельский;Невельск;UTC+11;46.6526899;141.8630725
Оха обл Сахалинская р-н Охинский;Оха;UTC+11;53.5867839;142.9412411
Поронайск обл Сахалинская р-н Поронайский;Поронайск;UTC+11;49.238866;143.1008333
Северо-Курильск обл Сахалинская р-н Северо-Курильский;Северо-Курильск;UTC+11;50.6730577;156.1282211
Томари обл Сахалинская р-н Томаринский;Томари;UTC+11;47.7620108;142.0615837
Углегорск обл Сахалинская р-н Углегорский;Углегорск;UTC+11;49.0815774;142.0692639
Холмск обл Сахалинская р-н Холмский;Холмск;UTC+11;47.0408423;142.041688
Южно-Сахалинск обл Сахалинская;Южно-Сахалинск;UTC+11;46.9591631;142.737976
Алапаевск обл Свердловская;Алапаевск;UTC+5;57.8475571;61.6693817
Арамиль обл Свердловская р-н Сысертский;Арамиль;UTC+5;56.694632;60.8343125
Артемовский обл Свердловская р-н Артемовский;Артемовский;UTC+5;57.3384177;61.8947443
Асбест обл Свердловская;Асбест;UTC+5;57.0052277;61.4581156
Березовский обл Свердловская;Березовский;UTC+5;56.9095924;60.8180907
Богданович обл Свердловская р-н Богдановичский;Богданович;UTC+5;56.7764795;62.0463679
Верхний Тагил обл Свердловская;Верхний Тагил;UTC+5;57.3763758;59.9517653
Верхняя Пышма обл Свердловская;Верхняя Пышма;UTC+5;56.9758903;60.5650383
Верхняя Салда обл Свердловская;Верхняя Салда;UTC+5;58.0465803;60.5560164
Верхняя Тура обл Свердловская;Верхняя Тура;UTC+5;58.3643685;59.8265235
Верхотурье обл Свердловская р-н Верхотурский;Верхотурье;UTC+5;58.8622073;60.8103945
Волчанск обл Свердловская;Волчанск;UTC+5;59.9351707;60.0798618
Дегтярск обл Свердловская;Дегтярск;UTC+5;56.7048206;60.079138
Екатеринбург обл Свердловская;Екатеринбург;UTC+5;56.8385216;60.6054911
Заречный обл Свердловская;Заречный;UTC+5;56.8102931;61.3380029
Ивдель обл Свердловская;Ивдель;UTC+5;60.6944496;60.4245069
Ирбит обл Свердловская;Ирбит;UTC+5;57.6838362;63.057675
Каменск-Уральский обл Свердловская;Каменск-Уральский;UTC+5;56.414962;61.9188674
Камышлов обл Свердловская;Камышлов;UTC+5;56.8465034;62.7119766
Карпинск обл Свердловская;Карпинск;UTC+5;59.7665925;60.0011703
Качканар обл Свердловская;Качканар;UTC+5;58.7051762;59.4839155
Кировград обл Свердловская;Кировград;UTC+5;57.4299433;60.0624051
Краснотурьинск обл Свердловская;Краснотурьинск;UTC+5;59.7636635;60.1934525
Красноуральск обл Свердловская;Красноуральск;UTC+5;58.348651;60.0408764
Красноуфимск обл Свердловская;Красноуфимск;UTC+5;56.612387;57.7636637
Кушва обл Свердловская;Кушва;UTC+5;58.2826013;59.7645766
Лесной обл Свердловская;Лесной;UTC+5;58.6348516;59.7981565
Михайловск обл Свердловская р-н Нижнесергинский;Михайловск;UTC+5;56.4370039;59.1137316
Невьянск обл Свердловская;Невьянск;UTC+5;57.49131;60.2183429
Нижние Серги обл Свердловская р-н Нижнесергинский;Нижние Серги;UTC+5;56.6544959;59.2953035
Нижний Тагил обл Свердловская;Нижний Тагил;UTC+5;57.910126;59.9812853
Нижняя Салда обл Свердловская;Нижняя Салда;UTC+5;58.0748272;60.7025418
Нижняя Тура обл Свердловская;Нижняя Тура;UTC+5;58.6309267;59.8520344
Новая Ляля обл Свердловская р-н Новолялинский;Новая Ляля;UTC+5;59.0538977;60.5944825
Новоуральск обл Свердловская;Новоуральск;UTC+5;57.2472567;60.0956714
Первоуральск обл Свердловская;Первоуральск;UTC+5;56.9080085;59.942926
Полевской обл Свердловская;Полевской;UTC+5;56.4956952;60.2365298
Ревда обл Свердловская;Ревда;UTC+5;56.7986319;59.9071591
Реж обл Свердловская р-н Режевской;Реж;UTC+5;57.3717477;61.3833842
Североуральск обл Свердловская;Североуральск;UTC+5;60.1533109;59.9525245
Серов обл Свердловская;Серов;UTC+5;59.6047724;60.5753882
Среднеуральск обл Свердловская;Среднеуральск;UTC+5;56.9918901;60.4771018
Сухой Лог обл Свердловская р-н Сухоложский;Сухой Лог;UTC+5;56.9076193;62.0358093
Сысерть обл Свердловская р-н Сысертский;Сысерть;UTC+5;56.5005715;60.8190003
Тавда обл Свердловская;Тавда;UTC+5;58.0434672;65.274217
Талица обл Свердловская р-н Талицкий;Талица;UTC+5;57.0122687;63.7320757
Туринск обл Свердловская р-н Туринский;Туринск;UTC+5;58.0393524;63.6981973
Севастополь;;UTC+3;44.6167013;33.525355
Алагир Респ Северная Осетия - Алания р-н Алагирский;Алагир;UTC+3;43.0417684;44.2199715
Ардон Респ Северная Осетия - Алания р-н Ардонский;Ардон;UTC+3;43.1755152;44.2955775
Беслан Респ Северная Осетия - Алания р-н Правобережный;Беслан;UTC+3;43.1937529;44.5338707
Владикавказ Респ Северная Осетия - Алания;Владикавказ;UTC+3;43.020588;44.6819182
Дигора Респ Северная Осетия - Алания р-н Дигорский;Дигора;UTC+3;43.1567628;44.1549483
Моздок Респ Северная Осетия - Алания р-н Моздокский;Моздок;UTC+3;43.7471342;44.6569607
Велиж обл Смоленская р-н Велижский;Велиж;UTC+3;55.6057916;31.1856206
Вязьма обл Смоленская р-н Вяземский;Вязьма;UTC+3;55.2116983;34.2951663
Гагарин обл Смоленская р-н Гагаринский;Гагарин;UTC+3;55.5525228;34.9950502
Демидов обл Смоленская р-н Демидовский;Демидов;UTC+3;55.2682105;31.5062809
Десногорск обл Смоленская;Десногорск;UTC+3;54.146457;33.2833222
Дорогобуж обл Смоленская р-н Дорогобужский;Дорогобуж;UTC+3;54.9136959;33.3023162
Духовщина обл Смоленская р-н Духовщинский;Духовщина;UTC+3;55.1950257;32.401252
Ельня обл Смоленская р-н Ельнинский;Ельня;UTC+3;54.5837795;33.1749867
Починок обл Смоленская р-н Починковский;Починок;UTC+3;54.406244;32.4398039
Рославль обл Смоленская р-н Рославльский;Рославль;UTC+3;53.9449558;32.8480258
Рудня обл Смоленская р-н Руднянский;Рудня;UTC+3;54.9441093;31.0794806
Сафоново обл Смоленская р-н Сафоновский;Сафоново;UTC+3;55.1199661;33.2336988
Смоленск обл Смоленская;Смоленск;UTC+3;54.782635;32.045251
Сычевка обл Смоленская р-н Сычевский;Сычевка;UTC+3;55.8308821;34.2778793
Ярцево обл Смоленская р-н Ярцевский;Ярцево;UTC+3;55.0564732;32.6902302
Благодарный край Ставропольский р-н Благодарненский;Благодарный;UTC+3;45.0989782;43.4306455
Буденновск край Ставропольский р-н Буденновский;Буденновск;UTC+3;44.7816067;44.1650339
Георгиевск край Ставропольский;Георгиевск;UTC+3;44.1485694;43.4739851
Ессентуки край Ставропольский;Ессентуки;UTC+3;44.0446186;42.8588653
Железноводск край Ставропольский;Железноводск;UTC+3;44.1320568;43.0306461
Зеленокумск край Ставропольский р-н Советский;Зеленокумск;UTC+3;44.4032668;43.8841877
Изобильный край Ставропольский р-н Изобильненский;Изобильный;UTC+3;45.3684296;41.708702
Ипатово край Ставропольский р-н Ипатовский;Ипатово;UTC+3;45.7181751;42.8970206
Кисловодск край Ставропольский;Кисловодск;UTC+3;43.9052044;42.7168721
Лермонтов край Ставропольский;Лермонтов;UTC+3;44.1054107;42.973135
Минеральные Воды край Ставропольский р-н Минераловодский;Минеральные Воды;UTC+3;44.2087273;43.138408
Михайловск край Ставропольский р-н Шпаковский;Михайловск;UTC+3;45.1297323;42.0288443
Невинномысск край Ставропольский;Невинномысск;UTC+3;44.6226031;41.9476723
Нефтекумск край Ставропольский р-н Нефтекумский;Нефтекумск;UTC+3;44.7544552;44.9865347
Новоалександровск край Ставропольский р-н Новоалександровский;Новоалександровск;UTC+3;45.4932733;41.2153996
Новопавловск край Ставропольский р-н Кировский;Новопавловск;UTC+3;43.9617097;43.6342865
Пятигорск край Ставропольский;Пятигорск;UTC+3;44.041091;43.0661553
Светлоград край Ставропольский р-н Петровский;Светлоград;UTC+3;45.328659;42.8565714
Ставрополь край Ставропольский;Ставрополь;UTC+3;45.044516;41.9689655
Жердевка обл Тамбовская р-н Жердевский;Жердевка;UTC+3;51.8422192;41.4617687
Кирсанов обл Тамбовская;Кирсанов;UTC+3;52.6506335;42.7286445
Котовск обл Тамбовская;Котовск;UTC+3;52.5924489;41.5101237
Мичуринск обл Тамбовская;Мичуринск;UTC+3;52.8912389;40.5104443
Моршанск обл Тамбовская;Моршанск;UTC+3;53.4436216;41.8115478
Рассказово обл Тамбовская;Рассказово;UTC+3;52.6538833;41.874285
Тамбов обл Тамбовская;Тамбов;UTC+3;52.7213154;41.452264
Уварово обл Тамбовская;Уварово;UTC+3;51.9767841;42.2529799
Агрыз Респ Татарстан р-н Агрызский;Агрыз;UTC+3;56.5232864;52.9943775
Азнакаево Респ Татарстан р-н Азнакаевский;Азнакаево;UTC+3;54.8598642;53.0745527
Альметьевск Респ Татарстан р-н Альметьевский;Альметьевск;UTC+3;54.9014619;52.2970467
Арск Респ Татарстан р-н Арский;Арск;UTC+3;56.0912567;49.877067
Бавлы Респ Татарстан р-н Бавлинский;Бавлы;UTC+3;54.4062891;53.2458065
Болгар Респ Татарстан р-н Спасский;Болгар;UTC+3;54.974891;49.0303882
Бугульма Респ Татарстан р-н Бугульминский;Бугульма;UTC+3;54.5363495;52.7895849
Буинск Респ Татарстан р-н Буинский;Буинск;UTC+3;54.9641538;48.2901209
Елабуга Респ Татарстан р-н Елабужский;Елабуга;UTC+3;55.7567107;52.0543794
Заинск Респ Татарстан р-н Заинский;Заинск;UTC+3;55.299053;52.0062972
Зеленодольск Респ Татарстан р-н Зеленодольский;Зеленодольск;UTC+3;55.8466651;48.5010954
Иннополис Респ Татарстан р-н Верхнеуслонский;Иннополис;UTC+3;55.7521699;48.7446846
Казань Респ Татарстан;Казань;UTC+3;55.7943584;49.1114975
Кукмор Респ Татарстан р-н Кукморский;Кукмор;UTC+3;56.1861392;50.8970238
Лаишево Респ Татарстан р-н Лаишевский;Лаишево;UTC+3;55.4042867;49.5499838
Лениногорск Респ Татарстан р-н Лениногорский;Лениногорск;UTC+3;54.5967034;52.4431906
Мамадыш Респ Татарстан р-н Мамадышский;Мамадыш;UTC+3;55.7150413;51.4129016
Менделеевск Респ Татарстан р-н Менделеевский;Менделеевск;UTC+3;55.895169;52.3143347
Мензелинск Респ Татарстан р-н Мензелинский;Мензелинск;UTC+3;55.7270698;53.1003968
Набережные Челны Респ Татарстан;Набережные Челны;UTC+3;55.7434619;52.3959165
Нижнекамск Респ Татарстан р-н Нижнекамский;Нижнекамск;UTC+3;55.6313609;51.8144669
Нурлат Респ Татарстан р-н Нурлатский;Нурлат;UTC+3;54.4281461;50.8049337
Тетюши Респ Татарстан р-н Тетюшский;Тетюши;UTC+3;54.936516;48.8314533
Чистополь Респ Татарстан р-н Чистопольский;Чистополь;UTC+3;55.3699139;50.6285784
Андреаполь обл Тверская;Андреаполь;UTC+3;56.6506724;32.2620163
Бежецк обл Тверская р-н Бежецкий;Бежецк;UTC+3;57.7860089;36.6904983
Белый обл Тверская р-н Бельский;Белый;UTC+3;55.8339056;32.9389741
Бологое обл Тверская р-н Бологовский;Бологое;UTC+3;57.8855767;34.0537771
Весьегонск обл Тверская;Весьегонск;UTC+3;58.6582598;37.2567558
Вышний Волочек обл Тверская;Вышний Волочек;UTC+3;57.568302;34.5404016
Западная Двина обл Тверская;Западная Двина;UTC+3;56.2566492;32.0805315
Зубцов обл Тверская р-н Зубцовский;Зубцов;UTC+3;56.1760868;34.5825515
Калязин обл Тверская р-н Калязинский;Калязин;UTC+3;57.2579478;37.7819693
Кашин обл Тверская;Кашин;UTC+3;57.360194;37.6119436
Кимры обл Тверская;Кимры;UTC+3;56.8733213;37.3556605
Конаково обл Тверская р-н Конаковский;Конаково;UTC+3;56.7275204;36.8012716
Красный Холм обл Тверская;Красный Холм;UTC+3;58.0571446;37.1126156
Кувшиново обл Тверская р-н Кувшиновский;Кувшиново;UTC+3;57.0265168;34.1676009
Лихославль обл Тверская р-н Лихославльский;Лихославль;UTC+3;57.1221304;35.4667605
Нелидово обл Тверская;Нелидово;UTC+3;56.2232566;32.7767459
Осташков обл Тверская;Осташков;UTC+3;57.1456744;33.1115372
Ржев обл Тверская;Ржев;UTC+3;56.262881;34.3291002
Старица обл Тверская р-н Старицкий;Старица;UTC+3;56.514876;34.9336396
Тверь обл Тверская;Тверь;UTC+3;56.8586059;35.9116761
Торжок обл Тверская;Торжок;UTC+3;57.04133;34.9602344
Торопец обл Тверская р-н Торопецкий;Торопец;UTC+3;56.5012188;31.6355466
Удомля обл Тверская;Удомля;UTC+3;57.8787314;35.0167348
Асино обл Томская р-н Асиновский;Асино;UTC+7;56.9907085;86.1765257
Кедровый обл Томская;Кедровый;UTC+7;57.561869;79.5677821
Колпашево обл Томская р-н Колпашевский;Колпашево;UTC+7;58.3114253;82.9025829
Северск обл Томская;Северск;UTC+7;56.6031285;84.8809926
Стрежевой обл Томская;Стрежевой;UTC+7;60.732895;77.604122
Томск обл Томская;Томск;UTC+7;56.4845804;84.9481582
Алексин обл Тульская р-н Алексинский;Алексин;UTC+3;54.5083349;37.0478067
Белев обл Тульская р-н Белевский;Белев;UTC+3;53.8114179;36.1382247
Богородицк обл Тульская р-н Богородицкий;Богородицк;UTC+3;53.7701014;38.1225152
Болохово обл Тульская р-н Киреевский;Болохово;UTC+3;54.0820349;37.826724
Венев обл Тульская р-н Веневский;Венев;UTC+3;54.3542315;38.2642236
Донской обл Тульская;Донской;UTC+3;53.9678944;38.3371824
Ефремов обл Тульская р-н Ефремовский;Ефремов;UTC+3;53.1464766;38.0921657
Кимовск обл Тульская р-н Кимовский;Кимовск;UTC+3;53.9698378;38.5380808
Киреевск обл Тульская р-н Киреевский;Киреевск;UTC+3;53.9319555;37.9220351
Липки обл Тульская р-н Киреевский;Липки;UTC+3;53.9417551;37.7020148
Новомосковск обл Тульская р-н Новомосковский;Новомосковск;UTC+3;54.0109075;38.2914024
Плавск обл Тульская р-н Плавский;Плавск;UTC+3;53.7096415;37.2862352
Советск обл Тульская р-н Щекинский;Советск;UTC+3;53.9338874;37.6316141
Суворов обл Тульская р-н Суворовский;Суворов;UTC+3;54.1343585;36.4807419
Тула обл Тульская;Тула;UTC+3;54.1920559;37.6153842
Узловая обл Тульская р-н Узловский;Узловая;UTC+3;53.9730452;38.1763201
Чекалин обл Тульская р-н Суворовский;Чекалин;UTC+3;54.0984438;36.2474142
Щекино обл Тульская р-н Щекинский;Щекино;UTC+3;54.0020652;37.5176288
Ясногорск обл Тульская р-н Ясногорский;Ясногорск;UTC+3;54.4795484;37.6896048
Ак-Довурак Респ Тыва;Ак-Довурак;UTC+7;51.178452;90.5985129
Кызыл Респ Тыва;Кызыл;UTC+7;51.7191047;94.4376882
Туран Респ Тыва р-н Пий-Хемский;Туран;UTC+7;52.1449619;93.9173396
Чадан Респ Тыва р-н Дзун-Хемчикский;Чадан;UTC+7;51.2844502;91.5788609
Шагонар Респ Тыва р-н Улуг-Хемский;Шагонар;UTC+7;51.5346393;92.9199675
Заводоуковск обл Тюменская;Заводоуковск;UTC+5;56.5027463;66.5513613
Ишим обл Тюменская;Ишим;UTC+5;56.1104858;69.4795776
Тобольск обл Тюменская;Тобольск;UTC+5;58.2017299;68.2538558
Тюмень обл Тюменская;Тюмень;UTC+5;57.1529744;65.5344099
Ялуторовск обл Тюменская;Ялуторовск;UTC+5;56.6547289;66.3122992
Воткинск Респ Удмуртская;Воткинск;UTC+4;57.0518149;53.9873096
Глазов Респ Удмуртская;Глазов;UTC+4;58.1359233;52.6635038
Ижевск Респ Удмуртская;Ижевск;UTC+4;56.852738;53.2114896
Камбарка Респ Удмуртская р-н Камбарский;Камбарка;UTC+4;56.2659916;54.193374
Можга Респ Удмуртская;Можга;UTC+4;56.4427774;52.2137886
Сарапул Респ Удмуртская;Сарапул;UTC+4;56.4615767;53.8037657
Барыш обл Ульяновская р-н Барышский;Барыш;UTC+4;53.6533992;47.1181134
Димитровград обл Ульяновская;Димитровград;UTC+4;54.2167926;49.6262585
Инза обл Ульяновская р-н Инзенский;Инза;UTC+4;53.8549647;46.3533459
Новоульяновск обл Ульяновская;Новоульяновск;UTC+4;54.1447956;48.3910789
Сенгилей обл Ульяновская р-н Сенгилеевский;Сенгилей;UTC+4;53.958964;48.7768269
Ульяновск обл Ульяновская;Ульяновск;UTC+4;54.3079415;48.3748487
Амурск край Хабаровский;Амурск;UTC+10;50.2344147;136.8792444
Бикин край Хабаровский;Бикин;UTC+10;46.8185743;134.2550718
Вяземский край Хабаровский р-н Вяземский;Вяземский;UTC+10;47.5353379;134.7553856
Комсомольск-на-Амуре край Хабаровский;Комсомольск-на-Амуре;UTC+10;50.5498936;137.0079408
Николаевск-на-Амуре край Хабаровский;Николаевск-на-Амуре;UTC+10;53.1460657;140.7111367
Советская Гавань край Хабаровский;Советская Гавань;UTC+10;48.9664966;140.285174
Хабаровск край Хабаровский;Хабаровск;UTC+10;48.4647258;135.0598942
Абаза Респ Хакасия;Абаза;UTC+7;52.6516647;90.0885686
Абакан Респ Хакасия;Абакан;UTC+7;53.7223325;91.4436721
Саяногорск Респ Хакасия;Саяногорск;UTC+7;53.1008083;91.4122454
Сорск Респ Хакасия;Сорск;UTC+7;54.0002888;90.2594446
Черногорск Респ Хакасия;Черногорск;UTC+7;53.8259342;91.3260229
Белоярский АО Ханты-Мансийский Автономный округ - Югра;Белоярский;UTC+5;63.7121099;66.6772226
Когалым АО Ханты-Мансийский Автономный округ - Югра;Когалым;UTC+5;62.2639527;74.4829794
Лангепас АО Ханты-Мансийский Автономный округ - Югра;Лангепас;UTC+5;61.2536939;75.1807763
Лянтор АО Ханты-Мансийский Автономный округ - Югра р-н Сургутский;Лянтор;UTC+5;61.6392863;72.179409
Мегион АО Ханты-Мансийский Автономный округ - Югра;Мегион;UTC+5;61.0318712;76.1025878
Нефтеюганск АО Ханты-Мансийский Автономный округ - Югра;Нефтеюганск;UTC+5;61.0882676;72.6164079
Нижневартовск АО Ханты-Мансийский Автономный округ - Югра;Нижневартовск;UTC+5;60.9396698;76.5696184
Нягань АО Ханты-Мансийский Автономный округ - Югра;Нягань;UTC+5;62.1454701;65.3946047
Покачи АО Ханты-Мансийский Автономный округ - Югра;Покачи;UTC+5;61.7422169;75.5941517
Пыть-Ях АО Ханты-Мансийский Автономный округ - Югра;Пыть-Ях;UTC+5;60.7585833;72.8365617
Радужный АО Ханты-Мансийский Автономный округ - Югра;Радужный;UTC+5;62.1342888;77.4584094
Советский АО Ханты-Мансийский Автономный округ - Югра р-н Советский;Советский;UTC+5;61.3706913;63.5667222
Сургут АО Ханты-Мансийский Автономный округ - Югра;Сургут;UTC+5;61.2541083;73.3961587
Урай АО Ханты-Мансийский Автономный округ - Югра;Урай;UTC+5;60.1296954;64.8038508
Ханты-Мансийск АО Ханты-Мансийский Автономный округ - Югра;Ханты-Мансийск;UTC+5;61.0023984;69.0184798
Югорск АО Ханты-Мансийский Автономный округ - Югра;Югорск;UTC+5;61.3123568;63.3365484
Аша обл Челябинская р-н Ашинский;Аша;UTC+5;54.9906527;57.2783953
Бакал обл Челябинская р-н Саткинский;Бакал;UTC+5;54.9406399;58.8051698
Верхнеуральск обл Челябинская р-н Верхнеуральский;Верхнеуральск;UTC+5;53.8760961;59.2169852
Верхний Уфалей обл Челябинская;Верхний Уфалей;UTC+5;56.0487158;60.2318886
Еманжелинск обл Челябинская р-н Еманжелинский;Еманжелинск;UTC+5;54.7554548;61.3243477
Златоуст обл Челябинская;Златоуст;UTC+5;55.1714905;59.6725549
Карабаш обл Челябинская;Карабаш;UTC+5;55.4852323;60.2358881
Карталы обл Челябинская р-н Карталинский;Карталы;UTC+5;53.0536197;60.6478408
Касли обл Челябинская р-н Каслинский;Касли;UTC+5;55.8868784;60.7421663
Катав-Ивановск обл Челябинская р-н Катав-Ивановский;Катав-Ивановск;UTC+5;54.7521438;58.1983648
Копейск обл Челябинская;Копейск;UTC+5;55.116665;61.6179185
Коркино обл Челябинская р-н Коркинский;Коркино;UTC+5;54.8903147;61.4034576
Куса обл Челябинская р-н Кусинский;Куса;UTC+5;55.3386053;59.4385778
Кыштым обл Челябинская;Кыштым;UTC+5;55.7061276;60.5563781
Магнитогорск обл Челябинская;Магнитогорск;UTC+5;53.4072153;58.9791437
Миасс обл Челябинская;Миасс;UTC+5;55.0456457;60.1077572
Миньяр обл Челябинская р-н Ашинский;Миньяр;UTC+5;55.0709557;57.548478
Нязепетровск обл Челябинская р-н Нязепетровский;Нязепетровск;UTC+5;56.0536895;59.6097202
Озерск обл Челябинская;Озерск;UTC+5;55.763154;60.7076198
Пласт обл Челябинская р-н Пластовский;Пласт;UTC+5;54.3692764;60.8151894
Сатка обл Челябинская р-н Саткинский;Сатка;UTC+5;55.0405288;59.0288975
Сим обл Челябинская р-н Ашинский;Сим;UTC+5;54.9907827;57.6900155
Снежинск обл Челябинская;Снежинск;UTC+5;56.0851495;60.7324914
Трехгорный обл Челябинская;Трехгорный;UTC+5;54.8178249;58.4464194
Троицк обл Челябинская;Троицк;UTC+5;54.0843745;61.5586831
Усть-Катав обл Челябинская;Усть-Катав;UTC+5;54.9260812;58.152805
Чебаркуль обл Челябинская;Чебаркуль;UTC+5;54.9818567;60.3773121
Челябинск обл Челябинская;Челябинск;UTC+5;55.1602624;61.4008078
Южноуральск обл Челябинская;Южноуральск;UTC+5;54.448927;61.2581158
Юрюзань обл Челябинская р-н Катав-Ивановский;Юрюзань;UTC+5;54.854662;58.4226698
Аргун Респ Чеченская;Аргун;UTC+3;43.2916774;45.8723105
Грозный Респ Чеченская;Грозный;UTC+3;43.3180145;45.698291
Гудермес Респ Чеченская р-н Гудермесский;Гудермес;UTC+3;43.3519142;46.1035645
Курчалой Респ Чеченская р-н Курчалоевский;Курчалой;UTC+3;43.2046547;46.0889364
 Респ Чеченская р-н Урус-Мартановский;;UTC+3;43.120175;45.539276
Шали Респ Чеченская р-н Шалинский;Шали;UTC+3;43.1488691;45.9009629
Алатырь Чувашия Чувашская Республика;Алатырь;UTC+3;54.8397989;46.5721997
Канаш Чувашия Чувашская Республика;Канаш;UTC+3;55.507;47.4918273
Козловка Чувашия Чувашская Республика р-н Козловский;Козловка;UTC+3;55.8406025;48.2577735
Мариинский Посад Чувашия Чувашская Республика р-н Мариинско-Посадский;Мариинский Посад;UTC+3;56.111923;47.7142942
Новочебоксарск Чувашия Чувашская Республика;Новочебоксарск;UTC+3;56.1094977;47.4791113
Цивильск Чувашия Чувашская Республика р-н Цивильский;Цивильск;UTC+3;55.8650213;47.4729349
Чебоксары Чувашия Чувашская Республика;Чебоксары;UTC+3;56.1438298;47.2489782
Шумерля Чувашия Чувашская Республика;Шумерля;UTC+3;55.4962415;46.4182681
Ядрин Чувашия Чувашская Республика р-н Ядринский;Ядрин;UTC+3;55.9406974;46.2020896
Анадырь АО Чукотский;Анадырь;UTC+12;64.7313924;177.5015421
Билибино АО Чукотский р-н Билибинский;Билибино;UTC+12;68.0584191;166.4388172
Певек АО Чукотский р-н Чаунский;Певек;UTC+12;69.7016661;170.2999022
Алдан Респ Саха /Якутия/ у Алданский;Алдан;UTC+9;58.6094283;125.3817188
Верхоянск Респ Саха /Якутия/ у Верхоянский;Верхоянск;UTC+10;67.5502451;133.390735
Вилюйск Респ Саха /Якутия/ у Вилюйский;Вилюйск;UTC+9;63.7517616;121.627284
Ленск Респ Саха /Якутия/ у Ленский;Ленск;UTC+9;60.7276196;114.9548255
Мирный Респ Саха /Якутия/ у Мирнинский;Мирный;UTC+9;62.536232;113.9667728
Нерюнгри Респ Саха /Якутия/;Нерюнгри;UTC+9;56.6599953;124.7202403
Нюрба Респ Саха /Якутия/ у Нюрбинский;Нюрба;UTC+9;63.2828955;118.3242437
Олекминск Респ Саха /Якутия/ у Олекминский;Олекминск;UTC+9;60.3758006;120.4060878
Покровск Респ Саха /Якутия/ у Хангаласский;Покровск;UTC+9;61.4843503;129.1482392
Среднеколымск Респ Саха /Якутия/ у Среднеколымский;Среднеколымск;UTC+11;67.4582218;153.7069425
Томмот Респ Саха /Якутия/ у Алданский;Томмот;UTC+9;58.9586859;126.2875462
Удачный Респ Саха /Якутия/ у Мирнинский;Удачный;UTC+9;66.4071765;112.3061555
Якутск Респ Саха /Якутия/;Якутск;UTC+9;62.0281405;129.7325887
Губкинский АО Ямало-Ненецкий;Губкинский;UTC+5;64.4457594;76.4713274
Лабытнанги АО Ямало-Ненецкий;Лабытнанги;UTC+5;66.6592841;66.3883009
Муравленко АО Ямало-Ненецкий;Муравленко;UTC+5;63.7940552;74.4948635
Надым АО Ямало-Ненецкий;Надым;UTC+5;65.5377966;72.5182736
Новый Уренгой АО Ямало-Ненецкий;Новый Уренгой;UTC+5;66.0839433;76.6809681
Ноябрьск АО Ямало-Ненецкий;Ноябрьск;UTC+5;63.2018039;75.4510581
Салехард АО Ямало-Ненецкий;Салехард;UTC+5;66.5492077;66.6085318
Тарко-Сале АО Ямало-Ненецкий р-н Пуровский;Тарко-Сале;UTC+5;64.9118803;77.7610236
Гаврилов-Ям обл Ярославская р-н Гаврилов-Ямский;Гаврилов-Ям;UTC+3;57.3091058;39.8546444
Данилов обл Ярославская р-н Даниловский;Данилов;UTC+3;58.1860098;40.1795067
Любим обл Ярославская р-н Любимский;Любим;UTC+3;58.3620228;40.686841
Мышкин обл Ярославская р-н Мышкинский;Мышкин;UTC+3;57.7881684;38.4544224
Переславль-Залесский обл Ярославская;Переславль-Залесский;UTC+3;56.7360544;38.8543617
Пошехонье обл Ярославская р-н Пошехонский;Пошехонье;UTC+3;58.5062879;39.1208434
Ростов обл Ярославская р-н Ростовский;Ростов;UTC+3;57.2051315;39.4378622
Рыбинск обл Ярославская р-н Рыбинский;Рыбинск;UTC+3;58.0485495;38.8584119
Тутаев обл Ярославская р-н Тутаевский;Тутаев;UTC+3;57.8674993;39.5369627
Углич обл Ярославская р-н Угличский;Углич;UTC+3;57.5224249;38.3020044
Ярославль обл Ярославская;Ярославль;UTC+3;57.6215477;39.8977411
